[
  {
    "lat": "45.5638467",
    "lng": "-73.7938844",
    "id": 2218506,
    "name": "1999 L'Entrepot du Hockey",
    "address": "4855 Louis-B-Mayer",
    "country": "Canada",
    "state": "QC",
    "city": "Laval",
    "postal": "H7P 6C8",
    "priority": 1
  },
  {
    "lat": "50.9719668",
    "lng": "-114.0724907",
    "id": 2219060,
    "name": "Adrenalin Source For Sports",
    "address": "9309 Macleod Trail South",
    "country": "Canada",
    "state": "AB",
    "city": "Calgary",
    "postal": "T2J 0P6",
    "priority": 1
  },
  {
    "lat": "52.1272825",
    "lng": "-106.6714434",
    "id": 2218436,
    "name": "Al Anderson's Source for Sports",
    "address": "208 Ave B South",
    "country": "Canada",
    "state": "SK",
    "city": "Saskatoon",
    "postal": "S7M 1M4",
    "priority": 1
  },
  {
    "lat": "45.631893",
    "lng": "-61.997086",
    "id": 2218327,
    "name": "Antigonish Golf Club",
    "address": "87 Clovercille Rd.",
    "country": "Canada",
    "state": "NS",
    "city": "Antigonish",
    "postal": "B2G 2L7",
    "priority": 1
  },
  {
    "lat": "44.6506713",
    "lng": "-63.6308763",
    "id": 2218252,
    "name": "Ashburn GC",
    "address": "3250 Joseph Howe Drive",
    "country": "Canada",
    "state": "NS",
    "city": "Halifax",
    "postal": "B3L4G1",
    "priority": 1
  },
  {
    "lat": "45.6493405",
    "lng": "-74.3305012",
    "id": 2218446,
    "name": "Aventure 78",
    "address": "292 Béthany",
    "country": "Canada",
    "state": "QC",
    "city": "Lachute",
    "postal": "J8H2N2",
    "priority": 1
  },
  {
    "lat": "45.4111324",
    "lng": "-75.6933049",
    "id": 2218465,
    "name": "Baseball Town (Laval)",
    "address": "464 Bank Street",
    "country": "Canada",
    "state": "ON",
    "city": "Ottawa",
    "postal": "k2p 1z3",
    "priority": 1
  },
  {
    "lat": "45.5720932",
    "lng": "-73.7842801",
    "id": 2218466,
    "name": "Baseball Town (Laval)",
    "address": "3835 Boul.Cure-Labelle",
    "country": "Canada",
    "state": "QC",
    "city": "Laval",
    "postal": "H7P 0A5",
    "priority": 1
  },
  {
    "lat": "45.490434",
    "lng": "-73.3821374",
    "id": 2218467,
    "name": "Baseball Town (Laval)",
    "address": "1657 Boulevard des Promenades",
    "country": "Canada",
    "state": "QC",
    "city": "SAINT-HUBERT",
    "postal": "J3Y 5K2",
    "priority": 1
  },
  {
    "lat": "53.0184116",
    "lng": "-112.8470906",
    "id": 2219069,
    "name": "Battle River Sports Excellence",
    "address": "6120 - 48 AVE CAMROSE",
    "country": "Canada",
    "state": "AB",
    "city": "Camrose",
    "postal": "T4V 0K5",
    "priority": 1
  },
  {
    "lat": "43.8093522",
    "lng": "-79.3752921",
    "id": 2218306,
    "name": "Bayview Golf Club",
    "address": "25 Fairway Heights Dr",
    "country": "Canada",
    "state": "ON",
    "city": "Thornhill",
    "postal": "L3T 3X1",
    "priority": 1
  },
  {
    "lat": "43.7065187",
    "lng": "-79.3756518",
    "id": 2218240,
    "name": "Bayview Natural Food",
    "address": "1622 Bayview Ave.",
    "country": "Canada",
    "state": "ON",
    "city": "Toronto",
    "postal": "M4G 3B7",
    "priority": 1
  },
  {
    "lat": "43.6995134",
    "lng": "-79.4314668",
    "id": 2218241,
    "name": "Bayview Natural Food",
    "address": "1001 Eglinton Ave. W",
    "country": "Canada",
    "state": "ON",
    "city": "Toronto",
    "postal": "M6C 2C7",
    "priority": 1
  },
  {
    "lat": "43.265125",
    "lng": "-80.046493",
    "id": 2218361,
    "name": "Beverly Golf & Country Club",
    "address": "1211 2nd Concession Road West",
    "country": "Canada",
    "state": "ON",
    "city": "Copetown",
    "postal": "L0R 1J0",
    "priority": 1
  },
  {
    "lat": "50.7069158",
    "lng": "-119.2565727",
    "id": 2218348,
    "name": "Big Al's House of Hockey",
    "address": "202-2600 10th Ave",
    "country": "Canada",
    "state": "BC",
    "city": "Salmon Arm",
    "postal": "V1E 2S4",
    "priority": 1
  },
  {
    "lat": "49.2168786",
    "lng": "-122.6003297",
    "id": 2218307,
    "name": "Bill's Skate Shop",
    "address": "22446 Lougheed Hwy",
    "country": "Canada",
    "state": "BC",
    "city": "Maple Ridge",
    "postal": "V2X 2T6",
    "priority": 1
  },
  {
    "lat": "51.0412746",
    "lng": "-114.2133676",
    "id": 2218947,
    "name": "Blush Lane Aspen",
    "address": "3000-10 Aspen Stone Blvd SW",
    "country": "Canada",
    "state": "AB",
    "city": "Calgary",
    "postal": "T3H 0K3",
    "priority": 1
  },
  {
    "lat": "53.5178203",
    "lng": "-113.4932819",
    "id": 2218957,
    "name": "Blush Lane Edmonton",
    "address": "8135 102 Street",
    "country": "Canada",
    "state": "AB",
    "city": "Edmonton",
    "postal": "T6E 4A4",
    "priority": 1
  },
  {
    "lat": "51.0242547",
    "lng": "-114.1088586",
    "id": 2218960,
    "name": "Blush Lane Marda Loop",
    "address": "2044 33 Ave SW",
    "country": "Canada",
    "state": "AB",
    "city": "Calgary",
    "postal": "T2T 1Z4",
    "priority": 1
  },
  {
    "lat": "49.2681947",
    "lng": "-123.104369",
    "id": 2218710,
    "name": "Body Energy",
    "address": "10 East 3rd Ave",
    "country": "Canada",
    "state": "BC",
    "city": "Vancouver",
    "postal": "V5T 1C3",
    "priority": 1
  },
  {
    "lat": "49.2636924",
    "lng": "-123.1537601",
    "id": 2218711,
    "name": "Body Energy",
    "address": "2146 West Broadway",
    "country": "Canada",
    "state": "BC",
    "city": "Vancouver",
    "postal": "V6K 2C8",
    "priority": 1
  },
  {
    "lat": "49.2681947",
    "lng": "-123.104369",
    "id": 2218781,
    "name": "Body Energy Club",
    "address": "10 East 3rd Ave",
    "country": "Canada",
    "state": "BC",
    "city": "Vancouver",
    "postal": "V5T1C3",
    "priority": 1
  },
  {
    "lat": "49.2186468",
    "lng": "-122.9565391",
    "id": 2218867,
    "name": "Body Energy Club",
    "address": "7155 Kingsway St",
    "country": "Canada",
    "state": "BC",
    "city": "Burnaby",
    "postal": "V5E0A6",
    "priority": 1
  },
  {
    "lat": "49.2636924",
    "lng": "-123.1537601",
    "id": 2218909,
    "name": "Body Energy Club",
    "address": "2146 Broadway Ave",
    "country": "Canada",
    "state": "BC",
    "city": "Vancouver",
    "postal": "V6K 2C8",
    "priority": 1
  },
  {
    "lat": "49.2636924",
    "lng": "-123.1537601",
    "id": 2218910,
    "name": "Body Energy Club",
    "address": "2146 West Broadway",
    "country": "Canada",
    "state": "BC",
    "city": "Vancouver",
    "postal": "V6K 2C8",
    "priority": 1
  },
  {
    "lat": "43.6483841",
    "lng": "-79.3942074",
    "id": 2218210,
    "name": "BOLO - BodyLove Inc.",
    "phone": "(416) 762-1649",
    "address": "364 Richmond St W",
    "country": "Canada",
    "state": "ON",
    "city": "Toronto",
    "postal": "M5V 1X6",
    "priority": 1
  },
  {
    "lat": "43.9956531",
    "lng": "-78.7746191",
    "id": 2218249,
    "name": "Bond Head",
    "address": "2110 Concession Rd 7",
    "country": "Canada",
    "state": "ON",
    "city": "Bond Head",
    "postal": "L0G 1A0",
    "priority": 1
  },
  {
    "lat": "43.6546313",
    "lng": "-79.3982462",
    "id": 2218308,
    "name": "Bond Running Ltd.",
    "address": "329 Spadina Avenue",
    "country": "Canada",
    "state": "ON",
    "city": "Toronto",
    "postal": "M6K2V5",
    "priority": 1
  },
  {
    "lat": "45.5710727",
    "lng": "-73.4465446",
    "id": 2218480,
    "name": "Boutique Plan de Match (Boucherville)",
    "address": "1180, Place Nobel,",
    "country": "Canada",
    "state": "QC",
    "city": "Boucherville",
    "postal": "J4B 5L2",
    "priority": 1
  },
  {
    "lat": "43.9116196",
    "lng": "-78.6769849",
    "id": 2217261,
    "name": "Bowmanville Clinic Pharmacy",
    "phone": "905-623-7611",
    "address": "222 King Street East",
    "country": "Canada",
    "state": "ON",
    "city": "Bowmanville",
    "postal": "L1C 1P6",
    "priority": 1
  },
  {
    "lat": "43.9116196",
    "lng": "-78.6769849",
    "id": 2218698,
    "name": "Bowmanville Clinic Pharmacy",
    "address": "222 King Street East",
    "country": "Canada",
    "state": "ON",
    "city": "Bowmanville",
    "postal": "L1C 1P6",
    "priority": 1
  },
  {
    "lat": "43.6642479",
    "lng": "-79.7133444",
    "id": 2218317,
    "name": "Brampton Golf Club",
    "address": "7700 Kennedy Road",
    "country": "Canada",
    "state": "ON",
    "city": "Brampton",
    "postal": "L6W 0A1",
    "priority": 1
  },
  {
    "lat": "43.1724582",
    "lng": "-80.250994",
    "id": 2218632,
    "name": "Brant Sports Excellence",
    "address": "415 Fairview Dr",
    "country": "Canada",
    "state": "ON",
    "city": "Brantford",
    "postal": "N3R 7M3",
    "priority": 1
  },
  {
    "lat": "43.5167296",
    "lng": "-79.6750309",
    "id": 2218242,
    "name": "Bristol Medical Pharmacy",
    "address": "2315 Bristol Circle",
    "country": "Canada",
    "state": "ON",
    "city": "Oakville",
    "postal": "L6H 6P8",
    "priority": 1
  },
  {
    "lat": "46.201587",
    "lng": "-62.588268",
    "id": 2218268,
    "name": "Brudenell GC",
    "address": "82 Dewars Lane",
    "country": "Canada",
    "state": "PE",
    "city": "Cardigan",
    "postal": "C0A 1G0",
    "priority": 1
  },
  {
    "lat": "43.0056804",
    "lng": "-79.2529629",
    "id": 2218643,
    "name": "Buckner's Source for Sports",
    "address": "545 Niagara ST",
    "country": "Canada",
    "state": "ON",
    "city": "Welland",
    "postal": "L3C 1L7",
    "priority": 1
  },
  {
    "lat": "43.3094706",
    "lng": "-79.8274632",
    "id": 2218367,
    "name": "Burlington Golf & Country Club",
    "address": "422 North Shore Blvd East",
    "country": "Canada",
    "state": "ON",
    "city": "Burlington",
    "postal": "L7T 3Z9",
    "priority": 1
  },
  {
    "lat": "46.2362896",
    "lng": "-61.3028253",
    "id": 2218257,
    "name": "Cabot Links",
    "address": "15933 Central Ave.",
    "country": "Canada",
    "state": "NS",
    "city": "Inverness",
    "postal": "B0E 1N0",
    "priority": 1
  },
  {
    "lat": "43.8114817",
    "lng": "-79.254894",
    "id": 2218573,
    "name": "Calabar Golf Tournament",
    "address": "5240 Finch Ave E",
    "country": "Canada",
    "state": "ON",
    "city": "Scarborough",
    "postal": "M1S 5A3",
    "priority": 1
  },
  {
    "lat": "50.8956152",
    "lng": "-113.944567",
    "id": 2219043,
    "name": "Calgary Coop Auburn Bay",
    "address": "700-100 Auburn Meadows Drive SE",
    "country": "Canada",
    "state": "AB",
    "city": "Calgary",
    "postal": "T3M 2G5",
    "priority": 1
  },
  {
    "lat": "51.161523",
    "lng": "-114.1231226",
    "id": 2219037,
    "name": "Calgary Coop Creekside",
    "address": "12000 Symons Valley Rd. NW",
    "country": "Canada",
    "state": "AB",
    "city": "Calgary",
    "postal": "T3P 0A3",
    "priority": 1
  },
  {
    "lat": "51.1237461",
    "lng": "-114.200953",
    "id": 2219012,
    "name": "Calgary Coop Crowfoot",
    "address": "35 Crowfoot way NW",
    "country": "Canada",
    "state": "AB",
    "city": "Calgary",
    "postal": "T3G 2L4",
    "priority": 1
  },
  {
    "lat": "50.9709831",
    "lng": "-114.0717239",
    "id": 2219011,
    "name": "Calgary Coop Macleod",
    "address": "8818 Macleod Trail South",
    "country": "Canada",
    "state": "AB",
    "city": "Calgary",
    "postal": "T2H 0M5",
    "priority": 1
  },
  {
    "lat": "50.9754939",
    "lng": "-114.069752",
    "id": 2218956,
    "name": "Calgary Coop Main",
    "address": "#110 151-86 Ave SE",
    "country": "Canada",
    "state": "AB",
    "city": "Calgary",
    "postal": "T2H 3A5",
    "priority": 1
  },
  {
    "lat": "51.0433814",
    "lng": "-114.0879113",
    "id": 2219000,
    "name": "Calgary Coop Midtown",
    "address": "1130 11th Ave SW",
    "country": "Canada",
    "state": "AB",
    "city": "Calgary",
    "postal": "T2R 0G4",
    "priority": 1
  },
  {
    "lat": "50.9623783",
    "lng": "-114.1207523",
    "id": 2219024,
    "name": "Calgary Coop Oakridge",
    "address": "35 - 2580 Southland Dr SW",
    "country": "Canada",
    "state": "AB",
    "city": "Calgary",
    "postal": "T2V 4J8",
    "priority": 1
  },
  {
    "lat": "50.9596745",
    "lng": "-114.0171844",
    "id": 2219055,
    "name": "Calgary Coop Quarry Park",
    "address": "410 - 163 Quarry Park Blvd SE",
    "country": "Canada",
    "state": "AB",
    "city": "Calgary",
    "postal": "T2C 5E1",
    "priority": 1
  },
  {
    "lat": "51.018998",
    "lng": "-114.158914",
    "id": 2219044,
    "name": "Calgary Coop Richmond Rd",
    "address": "4940 Richmond Rd SW",
    "country": "Canada",
    "state": "AB",
    "city": "Calgary",
    "postal": "T3E 6K4",
    "priority": 1
  },
  {
    "lat": "51.1481703",
    "lng": "-114.2566379",
    "id": 2219056,
    "name": "Calgary Coop Rocky Ridge",
    "address": "11595 Rocky Valley Drive NW",
    "country": "Canada",
    "state": "AB",
    "city": "Calgary",
    "postal": "T3G 5Y6",
    "priority": 1
  },
  {
    "lat": "51.0592543",
    "lng": "-114.2127332",
    "id": 2219058,
    "name": "Calgary Coop West Springs",
    "address": "100 - 917 85 Street SW",
    "country": "Canada",
    "state": "AB",
    "city": "Calgary",
    "postal": "T3H 4C8",
    "priority": 1
  },
  {
    "lat": "51.08254",
    "lng": "-114.0929439",
    "id": 2218953,
    "name": "Cambrian Pharmacy",
    "address": "#9 - 728 Northmount Drive NW",
    "country": "Canada",
    "state": "AB",
    "city": "Calgary",
    "postal": "T2K 3K2",
    "priority": 1
  },
  {
    "lat": "43.398214",
    "lng": "-80.302246",
    "id": 2218215,
    "name": "Cambridge Source For Sports",
    "phone": "519-621-0265",
    "address": "1710 Bishop St N #4",
    "country": "Canada",
    "state": "ON",
    "city": "Cambridge",
    "postal": "N1T 1J3",
    "priority": 1
  },
  {
    "lat": "43.3957749",
    "lng": "-80.3020313",
    "id": 2218335,
    "name": "Cambridge Sports Park",
    "address": "1001 Franklin Blvd",
    "country": "Canada",
    "state": "ON",
    "city": "Cambridge",
    "postal": "N1R 8B5",
    "priority": 1
  },
  {
    "lat": "43.0613777",
    "lng": "-79.9635849",
    "id": 2218437,
    "name": "Canadian Tire",
    "address": "365 Argyle St. South",
    "country": "Canada",
    "state": "ON",
    "city": "Caledonia",
    "postal": "N3W2N2",
    "priority": 1
  },
  {
    "lat": "42.399719",
    "lng": "-82.2095941",
    "id": 2218439,
    "name": "Canadian Tire",
    "address": "575 Grand Avenue West",
    "country": "Canada",
    "state": "ON",
    "city": "Chatham",
    "postal": "N7L 1C5",
    "priority": 1
  },
  {
    "lat": "43.7166569",
    "lng": "-79.4472576",
    "id": 2218441,
    "name": "Canadian Tire",
    "address": "700 Lawrence Avenue West",
    "country": "Canada",
    "state": "ON",
    "city": "Toronto",
    "postal": "M6A 3B4",
    "priority": 1
  },
  {
    "lat": "44.1860067",
    "lng": "-77.399726",
    "id": 2218666,
    "name": "Canadian Tire Store",
    "address": "101 Bell Blvd",
    "country": "Canada",
    "state": "ON",
    "city": "Belleville",
    "postal": "K8P 4V2",
    "priority": 1
  },
  {
    "lat": "43.3510876",
    "lng": "-79.7898422",
    "id": 2218667,
    "name": "Canadian Tire Store",
    "address": "Canadian Tire Corporation LTD",
    "country": "Canada",
    "state": "ON",
    "city": "Burlington",
    "postal": "L7R 0C1",
    "priority": 1
  },
  {
    "lat": "45.4760714",
    "lng": "-73.468026",
    "id": 2218474,
    "name": "Canlan Ice Sports (Brossard)",
    "address": "5880 boul. Taschereau",
    "country": "Canada",
    "state": "QC",
    "city": "Brossard",
    "postal": "J4W 1M6",
    "priority": 1
  },
  {
    "lat": "49.2511125",
    "lng": "-122.9694595",
    "id": 2218353,
    "name": "Canlan Ice Sports Burnaby",
    "address": "6501 Sprott St.",
    "country": "Canada",
    "state": "BC",
    "city": "Burnaby",
    "postal": "V5B 3B8",
    "priority": 1
  },
  {
    "lat": "43.6999335",
    "lng": "-79.5763229",
    "id": 2218362,
    "name": "Canlan Ice Sports Etobicoke",
    "address": "1120 Martingrove Rd",
    "country": "Canada",
    "state": "ON",
    "city": "Etobicoke",
    "postal": "M9W 4W1",
    "priority": 1
  },
  {
    "lat": "43.4563034",
    "lng": "-79.678555",
    "id": 2218359,
    "name": "Canlan Ice Sports Oakville",
    "address": "300 Cornwall Road",
    "country": "Canada",
    "state": "ON",
    "city": "Oakville",
    "postal": "L6J 7T9",
    "priority": 1
  },
  {
    "lat": "52.0573623",
    "lng": "-106.6062151",
    "id": 2218364,
    "name": "Canlan Ice Sports Saskatoon",
    "address": "2301 Grasswood Road East",
    "country": "Canada",
    "state": "SK",
    "city": "Saskatoon",
    "postal": "S7K 6S7",
    "priority": 1
  },
  {
    "lat": "43.8291236",
    "lng": "-79.2516344",
    "id": 2218365,
    "name": "Canlan Ice Sports Scarborough",
    "address": "159 Dynamic Drive",
    "country": "Canada",
    "state": "ON",
    "city": "scarborough",
    "postal": "M1V 5L8",
    "priority": 1
  },
  {
    "lat": "43.7747279",
    "lng": "-79.5137961",
    "id": 2218340,
    "name": "Canlan Ice Sports York",
    "address": "989 Murray Ross Parkway",
    "country": "Canada",
    "state": "ON",
    "city": "Toronto",
    "postal": "M3J 3M4",
    "priority": 1
  },
  {
    "lat": "49.3536452",
    "lng": "-123.1246319",
    "id": 2218368,
    "name": "Capilano Golf and Country Club",
    "address": "420 Southborough Drive",
    "country": "Canada",
    "state": "BC",
    "city": "West Vancouver",
    "postal": "V7S 1M2",
    "priority": 1
  },
  {
    "lat": "53.7480048",
    "lng": "-113.5952815",
    "id": 2218366,
    "name": "Cardiff Golf and Country Club",
    "address": "55307 Range Road 251",
    "country": "Canada",
    "state": "AB",
    "city": "Morinville",
    "postal": "T8R 1S1",
    "priority": 1
  },
  {
    "lat": "52.1321608",
    "lng": "-122.1464992",
    "id": 2218434,
    "name": "Caribou Ski Source For Sports",
    "address": "1st Avenue North,",
    "country": "Canada",
    "state": "BC",
    "city": "Williams Lake",
    "postal": "V2G 4T6",
    "priority": 1
  },
  {
    "lat": "50.8340632",
    "lng": "-113.9472009",
    "id": 2218274,
    "name": "Carnmoney GC",
    "address": "44001 Dunbow Rd East",
    "country": "Canada",
    "state": "AB",
    "city": "Foothills",
    "postal": "T1S 4X7",
    "priority": 1
  },
  {
    "lat": "43.7040758",
    "lng": "-80.3795442",
    "id": 2218591,
    "name": "Centre Wellington Sports",
    "address": "277 St Andrew St W,",
    "country": "Canada",
    "state": "ON",
    "city": "Fergus",
    "postal": "N1M 1N8",
    "priority": 1
  },
  {
    "lat": "60.7188428",
    "lng": "-135.0508297",
    "id": 2218282,
    "name": "Changing Gears",
    "address": "119-108 Elliott Street",
    "country": "Canada",
    "state": "YT",
    "city": "Whitehorse",
    "postal": "Y1A 6C4",
    "priority": 1
  },
  {
    "lat": "43.944188",
    "lng": "-79.0919474",
    "id": 2218269,
    "name": "Cherry Downs",
    "address": "2110 Concession Rd 7",
    "country": "Canada",
    "state": "ON",
    "city": "Pickering",
    "postal": "L0C 1A0",
    "priority": 1
  },
  {
    "lat": "42.8994471",
    "lng": "-79.0745553",
    "id": 2218305,
    "name": "Cherry Hill Club",
    "address": "912 Cherry Hill BLVD. North RR #1",
    "country": "Canada",
    "state": "ON",
    "city": "Ridgeway",
    "postal": "L0S1N0",
    "priority": 1
  },
  {
    "lat": "43.7565765",
    "lng": "-79.4775952",
    "id": 2218292,
    "name": "Chesswood Arena",
    "address": "4000 Chesswood Drive",
    "country": "Canada",
    "state": "ON",
    "city": "Toronto",
    "postal": "M3J 2B9",
    "priority": 1
  },
  {
    "lat": "40.6243714",
    "lng": "-73.9932413",
    "id": 2219374,
    "name": "Cicada Natural",
    "address": "1572 61st St. 2nd floor",
    "country": "USA",
    "state": "NY",
    "city": "Brooklyn",
    "postal": "11219",
    "priority": 1
  },
  {
    "lat": "50.7056662",
    "lng": "-113.9720799",
    "id": 2219052,
    "name": "Classic Source for Sports",
    "address": "#321, 201 Southridge Dr.",
    "country": "Canada",
    "state": "AB",
    "city": "Okotoks",
    "postal": "T1S2E1",
    "priority": 1
  },
  {
    "lat": "44.6990233",
    "lng": "-63.5926557",
    "id": 2218636,
    "name": "Cleve's Source for Sports",
    "address": "30 Thornhill Drive",
    "country": "Canada",
    "state": "NS",
    "city": "Dartmouth",
    "postal": "B3B 1S1",
    "priority": 1
  },
  {
    "lat": "51.0881649",
    "lng": "-113.987786",
    "id": 2218963,
    "name": "Community Natural Foods Ltd.",
    "address": "3905 32nd Street NE",
    "country": "Canada",
    "state": "AB",
    "city": "Calgary",
    "postal": "T1Y 7C1",
    "priority": 1
  },
  {
    "lat": "44.583007",
    "lng": "-79.867956",
    "id": 2218590,
    "name": "Competitive Edge Sports",
    "address": "34 Queen St West",
    "country": "Canada",
    "state": "ON",
    "city": "Elmvale",
    "postal": "L0L1P0",
    "priority": 1
  },
  {
    "lat": "53.1937906",
    "lng": "-105.7290564",
    "id": 2218363,
    "name": "Cooke Municipal Golf Course",
    "address": "900 - 22nd Street East",
    "country": "Canada",
    "state": "SK",
    "city": "Prince Albert",
    "postal": "S6V1P1",
    "priority": 1
  },
  {
    "lat": "49.8544063",
    "lng": "-97.0734992",
    "id": 2218946,
    "name": "Coop Southdale",
    "address": "77 Vermillion Road",
    "country": "Canada",
    "state": "MB",
    "city": "Winnipeg",
    "postal": "R2J 3W7",
    "priority": 1
  },
  {
    "lat": "46.5570176",
    "lng": "-72.1135534",
    "id": 2218513,
    "name": "Cote-Reco Inc Go Sport Plessisville",
    "address": "101,12E Avenue",
    "country": "Canada",
    "state": "QC",
    "city": "Deschaillons",
    "postal": "G0S 1G0",
    "priority": 1
  },
  {
    "lat": "46.210533",
    "lng": "-71.7739863",
    "id": 2218514,
    "name": "Cote-Reco Inc Go Sport Plessisville",
    "address": "1216 Edouard-dufour",
    "country": "Canada",
    "state": "QC",
    "city": "Plessisville",
    "postal": "G6L 5s2",
    "priority": 1
  },
  {
    "lat": "46.5570176",
    "lng": "-72.1135534",
    "id": 2218503,
    "name": "Cote-Reco Inc. Go Sport Chandler",
    "address": "100 - 12E Avenue",
    "country": "Canada",
    "state": "QC",
    "city": "Deschaillons",
    "postal": "G0S 1G0",
    "priority": 1
  },
  {
    "lat": "48.3513006",
    "lng": "-64.674725",
    "id": 2218504,
    "name": "Cote-Reco Inc. Go Sport Chandler",
    "address": "95 Blvd Rene-Levesques Est",
    "country": "Canada",
    "state": "QC",
    "city": "Chandler",
    "postal": "G0C 1K0",
    "priority": 1
  },
  {
    "lat": "46.5570176",
    "lng": "-72.1135534",
    "id": 2218489,
    "name": "Cote-Reco Inc. Go Sport Drummond",
    "address": "100, 12E AVENUE",
    "country": "Canada",
    "state": "QC",
    "city": "Deschaillons",
    "postal": "G0S 1G0",
    "priority": 1
  },
  {
    "lat": "45.8981336",
    "lng": "-72.5155437",
    "id": 2218490,
    "name": "Cote-Reco Inc. Go Sport Drummond",
    "address": "750 Boul. Rene-Levesque",
    "country": "Canada",
    "state": "QC",
    "city": "Drummondville",
    "postal": "J2C 7N7",
    "priority": 1
  },
  {
    "lat": "46.5570176",
    "lng": "-72.1135534",
    "id": 2218468,
    "name": "Cote-Reco Inc.(Quebec)",
    "address": "100 - 12E Avenue",
    "country": "Canada",
    "state": "QC",
    "city": "Deschaillons",
    "postal": "G0S 1G0",
    "priority": 1
  },
  {
    "lat": "46.6828413",
    "lng": "-71.7247558",
    "id": 2218469,
    "name": "Cote-Reco Inc.(Quebec)",
    "address": "200 rue Commerciale, local 100",
    "country": "Canada",
    "state": "QC",
    "city": "Donnacona",
    "postal": "G3M 1W1",
    "priority": 1
  },
  {
    "lat": "48.7541006",
    "lng": "-123.6729887",
    "id": 2218258,
    "name": "Cowichan GC",
    "address": "4955 Trans-Canada Hwy",
    "country": "Canada",
    "state": "BC",
    "city": "Duncan",
    "postal": "V9L 3X1",
    "priority": 1
  },
  {
    "lat": "43.5512688",
    "lng": "-79.6444472",
    "id": 2218369,
    "name": "Credit Valley Enterprises Inc.",
    "address": "2500 Old Carriage Road",
    "country": "Canada",
    "state": "ON",
    "city": "Mississauga",
    "postal": "L5C 1Y7",
    "priority": 1
  },
  {
    "lat": "43.6672307",
    "lng": "-79.7086109",
    "id": 2218253,
    "name": "Danny Maue",
    "address": "7575 Kennedy Rd S",
    "country": "Canada",
    "state": "ON",
    "city": "Brampton",
    "postal": "L6W 4T2",
    "priority": 1
  },
  {
    "lat": "53.1937906",
    "lng": "-105.7290564",
    "id": 2218314,
    "name": "Darcy's Golf Shop",
    "address": "900 - 22nd Street East",
    "country": "Canada",
    "state": "SK",
    "city": "Prince Albert",
    "postal": "S6V1P1",
    "priority": 1
  },
  {
    "lat": "51.115707",
    "lng": "-114.1969189",
    "id": 2218283,
    "name": "Darren Kuprash",
    "address": "8 Silvergrove Mews N.W",
    "country": "Canada",
    "state": "AB",
    "city": "Calgary",
    "postal": "T3B 4T3",
    "priority": 1
  },
  {
    "lat": "43.437815",
    "lng": "-80.4664925",
    "id": 2218358,
    "name": "Dave Roy Golf Enterprises",
    "address": "625 Rockway Drive",
    "country": "Canada",
    "state": "ON",
    "city": "Kitchener",
    "postal": "N2G3B5",
    "priority": 1
  },
  {
    "lat": "34.1879132",
    "lng": "-118.5891946",
    "id": 2219400,
    "name": "Discount Hockey Inc USA",
    "address": "6465 De Soto Ave",
    "country": "USA",
    "state": "CA",
    "city": "Woodland Hills",
    "postal": "91367",
    "priority": 1
  },
  {
    "lat": "41.9574364",
    "lng": "-72.5664275",
    "id": 2219368,
    "name": "DK Hockey",
    "address": "1 Prior Rd",
    "country": "USA",
    "state": "CT",
    "city": "Enfield",
    "postal": "6082",
    "priority": 1
  },
  {
    "lat": "50.655415",
    "lng": "-120.3719687",
    "id": 2218642,
    "name": "Dolson's Source for Sports",
    "address": "251-1320 W. Trans Can. HWY",
    "country": "Canada",
    "state": "BC",
    "city": "Kamloops",
    "postal": "V1S 1JZ",
    "priority": 1
  },
  {
    "lat": "46.8079115",
    "lng": "-92.1741617",
    "id": 2219395,
    "name": "Duluth Hockey Company",
    "address": "2541 Maple Grove Rd",
    "country": "USA",
    "state": "MN",
    "city": "Duluth",
    "postal": "55811",
    "priority": 1
  },
  {
    "lat": "43.2593278",
    "lng": "-81.141346",
    "id": 2218637,
    "name": "Dunny's Source For Sports",
    "address": "154 Queen St.",
    "country": "Canada",
    "state": "ON",
    "city": "St. Marys",
    "postal": "N4X 1C3",
    "priority": 1
  },
  {
    "lat": "45.4643483",
    "lng": "-76.0413743",
    "id": 2218259,
    "name": "Eagle Creek",
    "address": "109 Royal Troon Ln",
    "country": "Canada",
    "state": "ON",
    "city": "Dunrobin",
    "postal": "K0A 1T0",
    "priority": 1
  },
  {
    "lat": "44.8626442",
    "lng": "-93.5315752",
    "id": 2219375,
    "name": "EdgeTek Hockey",
    "address": "410 West 78th Street.",
    "country": "USA",
    "state": "MN",
    "city": "Chanhassen",
    "postal": "55345",
    "priority": 1
  },
  {
    "lat": "51.0123034",
    "lng": "-114.2454422",
    "id": 2218301,
    "name": "Elbow Springs GC",
    "address": "240086 Lott Creek Drive",
    "country": "Canada",
    "state": "AB",
    "city": "Calgary",
    "postal": "T3Z 2V4",
    "priority": 1
  },
  {
    "lat": "43.6449036",
    "lng": "-79.3994368",
    "id": 2218208,
    "name": "elle fitness and lifestyle",
    "phone": "(416) 920-1400",
    "address": "580 King St W",
    "country": "Canada",
    "state": "ON",
    "city": "Toronto",
    "postal": "M5V 1M1\n",
    "priority": 1
  },
  {
    "lat": "43.9953011",
    "lng": "-79.3638552",
    "id": 2218275,
    "name": "Emerald Hills",
    "address": "14001 Warden Ave",
    "country": "Canada",
    "state": "ON",
    "city": "Whitchurch-Stouffville",
    "postal": "L4A 3T4",
    "priority": 1
  },
  {
    "lat": "45.4195809",
    "lng": "-71.8723092",
    "id": 2219092,
    "name": "Énergie P.L.P",
    "address": "800 13e avenue Nord",
    "country": "Canada",
    "state": "QC",
    "city": "Sherbrooke",
    "postal": "J1E3k3",
    "priority": 1
  },
  {
    "lat": "42.2185439",
    "lng": "-83.0773371",
    "id": 2218354,
    "name": "Essex Golf & Country Club",
    "address": "7555 Matchette Road",
    "country": "Canada",
    "state": "ON",
    "city": "LaSalle",
    "postal": "N9J 2S4",
    "priority": 1
  },
  {
    "lat": "51.0509643",
    "lng": "-114.0648039",
    "id": 2218955,
    "name": "Fifth Avenue Drug",
    "address": "222-425 1st Street SW",
    "country": "Canada",
    "state": "AB",
    "city": "Calgary",
    "postal": "T2P 3L8",
    "priority": 1
  },
  {
    "lat": "35.7690008",
    "lng": "-78.7413771",
    "id": 2219378,
    "name": "Five Hole Sports",
    "address": "1321 Buck Jones Rd",
    "country": "USA",
    "state": "NC",
    "city": "Raleigh",
    "postal": "27606",
    "priority": 1
  },
  {
    "lat": "48.395844",
    "lng": "-71.0701829",
    "id": 2218571,
    "name": "FL'Entrepot du Hockey",
    "address": "1860 Boul Talbot",
    "country": "Canada",
    "state": "QC",
    "city": "Chicoutimi",
    "postal": "G7h 7Y2",
    "priority": 1
  },
  {
    "lat": "45.664309",
    "lng": "-73.817587",
    "id": 2218276,
    "name": "Fontaienbleau",
    "address": "1 Boul de Fontainebleau",
    "country": "Canada",
    "state": "QC",
    "city": "Blainville",
    "postal": "J7B 1L4",
    "priority": 1
  },
  {
    "lat": "39.492255",
    "lng": "-104.890858",
    "id": 2219376,
    "name": "Forever Hockey",
    "address": "395 Crossing Circle",
    "country": "USA",
    "state": "CO",
    "city": "Castle Pines",
    "postal": "80108",
    "priority": 1
  },
  {
    "lat": "43.4380766",
    "lng": "-79.677055",
    "id": 2217262,
    "name": "Fortinos (South Oakville) Ltd",
    "phone": "905-845-3654",
    "address": "173 Lakeshore Road West",
    "country": "Canada",
    "state": "ON",
    "city": "Oakville",
    "postal": "L6K 1E7",
    "priority": 1
  },
  {
    "lat": "43.2155197",
    "lng": "-79.9894448",
    "id": 2217276,
    "name": "Fortinos Ancaster",
    "phone": "905-304-5740",
    "address": "54 Wilson Street West",
    "country": "Canada",
    "state": "ON",
    "city": "Ancaster",
    "postal": "L9G 1N2",
    "priority": 1
  },
  {
    "lat": "43.4070955",
    "lng": "-79.8043495",
    "id": 2217275,
    "name": "Fortinos Appleby",
    "phone": "905-319-1690",
    "address": "2515 Appleby Line",
    "country": "Canada",
    "state": "ON",
    "city": "Burlington",
    "postal": "L7R 0B6",
    "priority": 1
  },
  {
    "lat": "43.2615686",
    "lng": "-79.8896589",
    "id": 2217281,
    "name": "Fortinos Dundurn",
    "phone": "905-529-4290",
    "address": "50 Dundurn Street, S Unit B",
    "country": "Canada",
    "state": "ON",
    "city": "Hamilton",
    "postal": "L8P 4W3",
    "priority": 1
  },
  {
    "lat": "43.2311747",
    "lng": "-79.7655715",
    "id": 2217282,
    "name": "Fortinos Eastgate",
    "phone": "905-561-5291",
    "address": "75 Centennial Pkwy North",
    "country": "Canada",
    "state": "ON",
    "city": "Hamilton",
    "postal": "L8E 2P2",
    "priority": 1
  },
  {
    "lat": "43.223089",
    "lng": "-79.7479214",
    "id": 2217279,
    "name": "Fortinos Fiesta Mall",
    "phone": "905-664-2886",
    "address": "102 Highway #8",
    "country": "Canada",
    "state": "ON",
    "city": "Stoney Creek",
    "postal": "L8G 4H3",
    "priority": 1
  },
  {
    "lat": "43.788877",
    "lng": "-79.5549",
    "id": 2217278,
    "name": "Fortinos Highway #7 & Ansley",
    "phone": "905-851-5642",
    "address": "3940 Highway 7 R.R. #2",
    "country": "Canada",
    "state": "ON",
    "city": "Vaughan",
    "postal": "L4L 1A6",
    "priority": 1
  },
  {
    "lat": "43.6836958",
    "lng": "-79.8154916",
    "id": 2217265,
    "name": "Fortinos Highway 7 & Brisdale",
    "phone": "905-495-8108",
    "address": "35 Worthington Avenue",
    "country": "Canada",
    "state": "ON",
    "city": "Brampton",
    "postal": "L7A 2Y7",
    "priority": 1
  },
  {
    "lat": "43.7077189",
    "lng": "-79.7825675",
    "id": 2217283,
    "name": "Fortinos Hwy 10 & Bovaird",
    "phone": "905-453-3600",
    "address": "60 Quarry Edge Drive",
    "country": "Canada",
    "state": "ON",
    "city": "Brampton",
    "postal": "L6V 4K2",
    "priority": 1
  },
  {
    "lat": "43.1755191",
    "lng": "-79.7777232",
    "id": 2217267,
    "name": "Fortinos Hwy 20 & 53",
    "phone": "905-664-4355",
    "address": "21 Upper Centennial Pkwy S.",
    "country": "Canada",
    "state": "ON",
    "city": "Stoney Creek",
    "postal": "L8J 3W2",
    "priority": 1
  },
  {
    "lat": "43.7928261",
    "lng": "-79.6237162",
    "id": 2217270,
    "name": "Fortinos Langstaff",
    "phone": "905-851-7632",
    "address": "8585 Highway 27, RR3",
    "country": "Canada",
    "state": "ON",
    "city": "Vaughan",
    "postal": "L4L 1V2",
    "priority": 1
  },
  {
    "lat": "43.7166569",
    "lng": "-79.4472576",
    "id": 2217269,
    "name": "Fortinos Lawrence & Allen",
    "phone": "416-785-9843",
    "address": "700 Lawrence Ave. West",
    "country": "Canada",
    "state": "ON",
    "city": "North York",
    "postal": "M6A 3B4",
    "priority": 1
  },
  {
    "lat": "43.255467",
    "lng": "-79.9285395",
    "id": 2217272,
    "name": "Fortinos Main Street",
    "phone": "905-308-9045",
    "address": "1579 Main Street West",
    "country": "Canada",
    "state": "ON",
    "city": "Hamilton",
    "postal": "L8S 1E6",
    "priority": 1
  },
  {
    "lat": "43.8492237",
    "lng": "-79.5327694",
    "id": 2217274,
    "name": "Fortinos Major Mackenzie",
    "phone": "905-417-0484",
    "address": "2911 Major Mackenzie Drive",
    "country": "Canada",
    "state": "ON",
    "city": "Vaughn",
    "postal": "L6A 3N9",
    "priority": 1
  },
  {
    "lat": "43.2208513",
    "lng": "-79.8593933",
    "id": 2217268,
    "name": "Fortinos Mall Road",
    "phone": "905-574-0810",
    "address": "65 Mall Road",
    "country": "Canada",
    "state": "ON",
    "city": "Hamilton",
    "postal": "L8V 5B5",
    "priority": 1
  },
  {
    "lat": "43.7603206",
    "lng": "-79.7298279",
    "id": 2217263,
    "name": "Fortinos Mountainash",
    "phone": "905-793-8200",
    "address": "55 Mountainash Road",
    "country": "Canada",
    "state": "ON",
    "city": "Brampton",
    "postal": "L6R 1W4",
    "priority": 1
  },
  {
    "lat": "43.3687006",
    "lng": "-79.7535303",
    "id": 2217284,
    "name": "Fortinos New Street",
    "phone": "905-631-7227",
    "address": "5111 New Street",
    "country": "Canada",
    "state": "ON",
    "city": "Burlington",
    "postal": "L7L 1V2",
    "priority": 1
  },
  {
    "lat": "43.4671912",
    "lng": "-79.7453665",
    "id": 2217280,
    "name": "Fortinos Neyagawa",
    "phone": "905-257-3540",
    "address": "493 Dundas St. West",
    "country": "Canada",
    "state": "ON",
    "city": "Oakville",
    "postal": "L6M4M2",
    "priority": 1
  },
  {
    "lat": "43.3269263",
    "lng": "-79.8308774",
    "id": 2217273,
    "name": "Fortinos Plains Road",
    "phone": "905-634-1591",
    "address": "1059 Plains Road East",
    "country": "Canada",
    "state": "ON",
    "city": "Burlington",
    "postal": "L7T 4K1",
    "priority": 1
  },
  {
    "lat": "43.7214387",
    "lng": "-79.5962916",
    "id": 2217264,
    "name": "Fortinos Queens Plate",
    "phone": "416-745-4675",
    "address": "330 Queens Plate Drive",
    "country": "Canada",
    "state": "ON",
    "city": "Etobicoke",
    "postal": "M9W 7J7",
    "priority": 1
  },
  {
    "lat": "43.2036167",
    "lng": "-79.8955239",
    "id": 2217271,
    "name": "Fortinos Upper James 2004",
    "phone": "905-383-9700",
    "address": "1550 Upper James Street",
    "country": "Canada",
    "state": "ON",
    "city": "Hamilton",
    "postal": "L9B 1K3",
    "priority": 1
  },
  {
    "lat": "43.3667792",
    "lng": "-79.8224957",
    "id": 2217277,
    "name": "Fortinos Upper Middle",
    "phone": "905-336-6566",
    "address": "2025 Guelph Line",
    "country": "Canada",
    "state": "ON",
    "city": "Burlington",
    "postal": "L7P 4M8",
    "priority": 1
  },
  {
    "lat": "43.3355",
    "lng": "-79.90245",
    "id": 2217266,
    "name": "Fortinos Waterdown",
    "phone": "905-690-6446",
    "address": "115 Hamilton Street North",
    "country": "Canada",
    "state": "ON",
    "city": "Waterdown",
    "postal": "L0R 2H6",
    "priority": 1
  },
  {
    "lat": "45.4506812",
    "lng": "-73.7857132",
    "id": 2218498,
    "name": "Frasers Source For Sports",
    "address": "39 Donegani Ave",
    "country": "Canada",
    "state": "QC",
    "city": "Pointe-Claire",
    "postal": "H9R 2V7",
    "priority": 1
  },
  {
    "lat": "42.2425326",
    "lng": "-87.9568364",
    "id": 2219425,
    "name": "Fred's Pro Shop",
    "address": "935 Lakeview Parkway Suite 111",
    "country": "USA",
    "state": "IL",
    "city": "Vernon Hills",
    "postal": "60061",
    "priority": 1
  },
  {
    "lat": "49.652015",
    "lng": "-57.7557579",
    "id": 2218309,
    "name": "Frenchys Pro Shop",
    "address": "38-42 Boyd Ave",
    "country": "Canada",
    "state": "NL",
    "city": "Parks Beach",
    "postal": "A0A 1W0",
    "priority": 1
  },
  {
    "lat": "52.1076427",
    "lng": "-106.7008797",
    "id": 2218284,
    "name": "Gabes Golf Ltd",
    "address": "1630 Avenue U So.",
    "country": "Canada",
    "state": "SK",
    "city": "Saskatoon",
    "postal": "S7M 3C9",
    "priority": 1
  },
  {
    "lat": "49.4939681",
    "lng": "-119.6026206",
    "id": 2218583,
    "name": "Game Time Sports",
    "address": "500 Vees Dr,",
    "country": "Canada",
    "state": "BC",
    "city": "Penticton",
    "postal": "V2A 7Y6",
    "priority": 1
  },
  {
    "lat": "41.6721508",
    "lng": "-73.4779408",
    "id": 2219410,
    "name": "GC) Bulls Bridge Golf Club",
    "address": "71 Bull's Bridge Road",
    "country": "USA",
    "state": "CT",
    "city": "South Kent",
    "postal": "6785",
    "priority": 1
  },
  {
    "lat": "34.1111549",
    "lng": "-118.4891159",
    "id": 2219411,
    "name": "GC) Mountain Gate Country Club",
    "address": "12445 Mountaingate Drive",
    "country": "USA",
    "state": "CA",
    "city": "Los Angeles",
    "postal": "90049",
    "priority": 1
  },
  {
    "lat": "53.4998421",
    "lng": "-113.4838142",
    "id": 2218945,
    "name": "Giant Bicycle",
    "address": "9833 63 Ave NW",
    "country": "Canada",
    "state": "AB",
    "city": "Edmonton",
    "postal": "T6E 0G7",
    "priority": 1
  },
  {
    "lat": "49.2365754",
    "lng": "-124.0506274",
    "id": 2219264,
    "name": "GNC",
    "address": "6631 Island Hwy North",
    "country": "Canada",
    "state": "BC",
    "city": "Nanaimo",
    "postal": "V9T 4T7",
    "priority": 1
  },
  {
    "lat": "49.187932",
    "lng": "-122.9472711",
    "id": 2219265,
    "name": "GNC",
    "address": "Howes St and Highway 91A",
    "country": "Canada",
    "state": "BC",
    "city": "New Westminster",
    "postal": "V3M 5X2",
    "priority": 1
  },
  {
    "lat": "53.8973582",
    "lng": "-122.7774471",
    "id": 2219266,
    "name": "GNC",
    "address": "3055 Massey Drive",
    "country": "Canada",
    "state": "BC",
    "city": "Prince George",
    "postal": "V2N 2S9",
    "priority": 1
  },
  {
    "lat": "49.1319953",
    "lng": "-123.0961191",
    "id": 2219267,
    "name": "GNC",
    "address": "11666 Steveston HWY",
    "country": "Canada",
    "state": "BC",
    "city": "Richmond",
    "postal": "V7A 5J3",
    "priority": 1
  },
  {
    "lat": "49.168255",
    "lng": "-123.139141",
    "id": 2219268,
    "name": "GNC",
    "address": "6060 Minoru Road",
    "country": "Canada",
    "state": "BC",
    "city": "Richmond",
    "postal": "V6Y 2V7",
    "priority": 1
  },
  {
    "lat": "49.043231",
    "lng": "-122.7803533",
    "id": 2219269,
    "name": "GNC",
    "address": "2285-160th St Unit 20",
    "country": "Canada",
    "state": "BC",
    "city": "Surrey",
    "postal": "V3S 9N6",
    "priority": 1
  },
  {
    "lat": "49.1670422",
    "lng": "-122.7990632",
    "id": 2219270,
    "name": "GNC",
    "address": "9014-152nd Street",
    "country": "Canada",
    "state": "BC",
    "city": "Surrey",
    "postal": "V3R 3P3",
    "priority": 1
  },
  {
    "lat": "49.2850101",
    "lng": "-123.1258708",
    "id": 2219271,
    "name": "GNC",
    "address": "1126 Robson Street",
    "country": "Canada",
    "state": "BC",
    "city": "Vancouver",
    "postal": "V6E 1B2",
    "priority": 1
  },
  {
    "lat": "50.2839138",
    "lng": "-119.2693074",
    "id": 2219272,
    "name": "GNC",
    "address": "4900 27th Street",
    "country": "Canada",
    "state": "BC",
    "city": "Vernon",
    "postal": "V1T 7G7",
    "priority": 1
  },
  {
    "lat": "48.4406315",
    "lng": "-123.506428",
    "id": 2219273,
    "name": "GNC",
    "address": "2945 Jacklin Road",
    "country": "Canada",
    "state": "BC",
    "city": "Victoria",
    "postal": "V9B 5E3",
    "priority": 1
  },
  {
    "lat": "48.4462254",
    "lng": "-123.3696272",
    "id": 2219274,
    "name": "GNC",
    "address": "3147 Douglas Street",
    "country": "Canada",
    "state": "BC",
    "city": "Victoria",
    "postal": "V8Z 6E3",
    "priority": 1
  },
  {
    "lat": "49.3275259",
    "lng": "-123.1392874",
    "id": 2219275,
    "name": "GNC",
    "address": "865 Park Royal North",
    "country": "Canada",
    "state": "BC",
    "city": "West Vancouver",
    "postal": "V7T 2W4",
    "priority": 1
  },
  {
    "lat": "49.8239311",
    "lng": "-99.9644481",
    "id": 2219276,
    "name": "GNC",
    "address": "1570-18th St Unit 87",
    "country": "Canada",
    "state": "MB",
    "city": "Brandon",
    "postal": "R7A 5C5",
    "priority": 1
  },
  {
    "lat": "49.8772088",
    "lng": "-97.1227938",
    "id": 2219277,
    "name": "GNC",
    "address": "130-1225 St Mary's Rd",
    "country": "Canada",
    "state": "MB",
    "city": "Winnipeg",
    "postal": "R2M 5E5",
    "priority": 1
  },
  {
    "lat": "49.9510117",
    "lng": "-97.1450071",
    "id": 2219278,
    "name": "GNC",
    "address": "2305 McPhillips Street",
    "country": "Canada",
    "state": "MB",
    "city": "Winnipeg",
    "postal": "R2V 3E1",
    "priority": 1
  },
  {
    "lat": "45.8120353",
    "lng": "-64.1997783",
    "id": 2219279,
    "name": "GNC",
    "address": "142 South Albion Street",
    "country": "Canada",
    "state": "NS",
    "city": "Amherst",
    "postal": "B4H 4H4",
    "priority": 1
  },
  {
    "lat": "44.6493029",
    "lng": "-63.618185",
    "id": 2219280,
    "name": "GNC",
    "address": "7001 Mumford Road",
    "country": "Canada",
    "state": "NS",
    "city": "Halifax",
    "postal": "B3L 4N9",
    "priority": 1
  },
  {
    "lat": "46.1467413",
    "lng": "-60.1386062",
    "id": 2219281,
    "name": "GNC",
    "address": "800 Grant Lake Road",
    "country": "Canada",
    "state": "NS",
    "city": "Sydney",
    "postal": "B1P 6S9",
    "priority": 1
  },
  {
    "lat": "43.2264367",
    "lng": "-79.9548557",
    "id": 2219282,
    "name": "GNC",
    "address": "737 Golf Links Rd",
    "country": "Canada",
    "state": "ON",
    "city": "Ancaster",
    "postal": "L9K 1L5",
    "priority": 1
  },
  {
    "lat": "44.013539",
    "lng": "-79.4147371",
    "id": 2219283,
    "name": "GNC",
    "address": "91 First Commerce Drive",
    "country": "Canada",
    "state": "ON",
    "city": "Aurora",
    "postal": "L4G 0G2",
    "priority": 1
  },
  {
    "lat": "44.189134",
    "lng": "-77.397489",
    "id": 2219284,
    "name": "GNC",
    "address": "390 N. Front St.",
    "country": "Canada",
    "state": "ON",
    "city": "Belleville",
    "postal": "K8P 3E1",
    "priority": 1
  },
  {
    "lat": "43.9111833",
    "lng": "-78.7019898",
    "id": 2219285,
    "name": "GNC",
    "address": "Highway 2 & Martin Road",
    "country": "Canada",
    "state": "ON",
    "city": "Bowmanville",
    "postal": "L1C 5A4",
    "priority": 1
  },
  {
    "lat": "43.1713397",
    "lng": "-80.2403125",
    "id": 2219286,
    "name": "GNC",
    "address": "84 Lynden Road",
    "country": "Canada",
    "state": "ON",
    "city": "Brantford",
    "postal": "N3R 6B8",
    "priority": 1
  },
  {
    "lat": "43.3485131",
    "lng": "-79.7935979",
    "id": 2219287,
    "name": "GNC",
    "address": "777 Guelph Line",
    "country": "Canada",
    "state": "ON",
    "city": "Burlington",
    "postal": "L7R 3N2",
    "priority": 1
  },
  {
    "lat": "43.3922581",
    "lng": "-79.7937754",
    "id": 2219288,
    "name": "GNC",
    "address": "2010 Appleby Line",
    "country": "Canada",
    "state": "ON",
    "city": "Burlington",
    "postal": "L7L 6M6",
    "priority": 1
  },
  {
    "lat": "43.3911284",
    "lng": "-80.3220505",
    "id": 2219289,
    "name": "GNC",
    "address": "355 Hespeler Road",
    "country": "Canada",
    "state": "ON",
    "city": "Cambridge",
    "postal": "N1R 6B3",
    "priority": 1
  },
  {
    "lat": "42.4326911",
    "lng": "-82.2210089",
    "id": 2219290,
    "name": "GNC",
    "address": "869 St.Clair St",
    "country": "Canada",
    "state": "ON",
    "city": "Chatham",
    "postal": "N7M 5J7",
    "priority": 1
  },
  {
    "lat": "45.016277",
    "lng": "-74.725548",
    "id": 2219291,
    "name": "GNC",
    "address": "1 Water Street E",
    "country": "Canada",
    "state": "ON",
    "city": "Cornwall",
    "postal": "K6H 6M2",
    "priority": 1
  },
  {
    "lat": "43.6116933",
    "lng": "-79.557183",
    "id": 2219292,
    "name": "GNC",
    "address": "25 The West Mall",
    "country": "Canada",
    "state": "ON",
    "city": "Etobicoke",
    "postal": "M9C 1B8",
    "priority": 1
  },
  {
    "lat": "43.5182747",
    "lng": "-80.2387533",
    "id": 2219293,
    "name": "GNC",
    "address": "435 Stone Road West",
    "country": "Canada",
    "state": "ON",
    "city": "Guelph",
    "postal": "N1G 2X6",
    "priority": 1
  },
  {
    "lat": "43.2176239",
    "lng": "-79.8615333",
    "id": 2219294,
    "name": "GNC",
    "address": "999 Upper Wentworth St",
    "country": "Canada",
    "state": "ON",
    "city": "Hamilton",
    "postal": "L9A 4R5",
    "priority": 1
  },
  {
    "lat": "43.2370533",
    "lng": "-79.8772574",
    "id": 2219295,
    "name": "GNC",
    "address": "661-697 Upper St.James St.",
    "country": "Canada",
    "state": "ON",
    "city": "Hamilton",
    "postal": "L9C 5R8",
    "priority": 1
  },
  {
    "lat": "45.3114428",
    "lng": "-75.9142711",
    "id": 2219296,
    "name": "GNC",
    "address": "400 Earl Grey Dr BLDG B",
    "country": "Canada",
    "state": "ON",
    "city": "Kanata",
    "postal": "K2T 1B9",
    "priority": 1
  },
  {
    "lat": "44.2563363",
    "lng": "-76.572171",
    "id": 2219297,
    "name": "GNC",
    "address": "945 Gardiners Rd",
    "country": "Canada",
    "state": "ON",
    "city": "Kingston",
    "postal": "K7M 7H4",
    "priority": 1
  },
  {
    "lat": "43.4243176",
    "lng": "-80.438563",
    "id": 2219298,
    "name": "GNC",
    "address": "2960 Kingsway Dr",
    "country": "Canada",
    "state": "ON",
    "city": "Kitchener",
    "postal": "N2C 1X1",
    "priority": 1
  },
  {
    "lat": "43.0018742",
    "lng": "-81.1735655",
    "id": 2219299,
    "name": "GNC",
    "address": "19-1925 Dundas St. East",
    "country": "Canada",
    "state": "ON",
    "city": "London",
    "postal": "N5V 1P7",
    "priority": 1
  },
  {
    "lat": "43.025599",
    "lng": "-81.2783801",
    "id": 2219300,
    "name": "GNC",
    "address": "1680 Richmond St N",
    "country": "Canada",
    "state": "ON",
    "city": "London",
    "postal": "N6G 3Y9",
    "priority": 1
  },
  {
    "lat": "42.9315865",
    "lng": "-81.2246887",
    "id": 2219301,
    "name": "GNC",
    "address": "1105 Wellington Rd",
    "country": "Canada",
    "state": "ON",
    "city": "London",
    "postal": "N6E 1V4",
    "priority": 1
  },
  {
    "lat": "43.8682055",
    "lng": "-79.2883137",
    "id": 2219302,
    "name": "GNC",
    "address": "5000 HWY 7 East",
    "country": "Canada",
    "state": "ON",
    "city": "Markham",
    "postal": "L3R 4M9",
    "priority": 1
  },
  {
    "lat": "43.5259539",
    "lng": "-79.8901725",
    "id": 2219303,
    "name": "GNC",
    "address": "401 & Steeles Ave",
    "country": "Canada",
    "state": "ON",
    "city": "Milton",
    "postal": "L9T 0A5",
    "priority": 1
  },
  {
    "lat": "43.5584112",
    "lng": "-79.7117817",
    "id": 2219304,
    "name": "GNC",
    "address": "5100 Erin Mills Parkway",
    "country": "Canada",
    "state": "ON",
    "city": "Mississauga",
    "postal": "L5M 4Z5",
    "priority": 1
  },
  {
    "lat": "43.5962021",
    "lng": "-79.7859991",
    "id": 2219305,
    "name": "GNC",
    "address": "3029 Argentia Road",
    "country": "Canada",
    "state": "ON",
    "city": "Mississauga",
    "postal": "L5N 8P7",
    "priority": 1
  },
  {
    "lat": "43.6133975",
    "lng": "-79.6951979",
    "id": 2219306,
    "name": "GNC",
    "address": "6045 Mavis Road",
    "country": "Canada",
    "state": "ON",
    "city": "Mississauga",
    "postal": "L5R 4G6",
    "priority": 1
  },
  {
    "lat": "45.3469493",
    "lng": "-75.8065581",
    "id": 2219307,
    "name": "GNC",
    "address": "100 Bayshore Drive",
    "country": "Canada",
    "state": "ON",
    "city": "Nepean",
    "postal": "K2B 8C1",
    "priority": 1
  },
  {
    "lat": "45.2698934",
    "lng": "-75.743713",
    "id": 2219308,
    "name": "GNC",
    "address": "50 Marketplace Ave",
    "country": "Canada",
    "state": "ON",
    "city": "Nepean",
    "postal": "K2J 5G3",
    "priority": 1
  },
  {
    "lat": "44.056104",
    "lng": "-79.4855044",
    "id": 2219309,
    "name": "GNC",
    "address": "17600 Yonge St",
    "country": "Canada",
    "state": "ON",
    "city": "Newmarket",
    "postal": "L3Y 4Z1",
    "priority": 1
  },
  {
    "lat": "43.0662077",
    "lng": "-79.1255702",
    "id": 2219310,
    "name": "GNC",
    "address": "7555 Montrose Rd",
    "country": "Canada",
    "state": "ON",
    "city": "Niagara Falls",
    "postal": "L2H 2E9",
    "priority": 1
  },
  {
    "lat": "46.3146329",
    "lng": "-79.4406629",
    "id": 2219311,
    "name": "GNC",
    "address": "1500 Fisher St",
    "country": "Canada",
    "state": "ON",
    "city": "North Bay",
    "postal": "P1B 2H3",
    "priority": 1
  },
  {
    "lat": "43.395563",
    "lng": "-79.7490761",
    "id": 2219312,
    "name": "GNC",
    "address": "3513 Wyecroft Rd",
    "country": "Canada",
    "state": "ON",
    "city": "Burlington",
    "postal": "L7L 6W6",
    "priority": 1
  },
  {
    "lat": "43.9432814",
    "lng": "-78.84396",
    "id": 2219313,
    "name": "GNC",
    "address": "1445 Harmony Rd N #500",
    "country": "Canada",
    "state": "ON",
    "city": "Oshawa",
    "postal": "L1H 7K5",
    "priority": 1
  },
  {
    "lat": "43.8792257",
    "lng": "-78.8789117",
    "id": 2219314,
    "name": "GNC",
    "address": "575 Laval Dr",
    "country": "Canada",
    "state": "ON",
    "city": "Oshawa",
    "postal": "L1J 0B5",
    "priority": 1
  },
  {
    "lat": "45.3731497",
    "lng": "-75.7686794",
    "id": 2219315,
    "name": "GNC",
    "address": "2121 Carling Ave",
    "country": "Canada",
    "state": "ON",
    "city": "Ottawa",
    "postal": "K2A 1H2",
    "priority": 1
  },
  {
    "lat": "45.4781702",
    "lng": "-75.5155527",
    "id": 2219316,
    "name": "GNC",
    "address": "110 Place D'Orleans Dr",
    "country": "Canada",
    "state": "ON",
    "city": "Ottawa",
    "postal": "K1C 2L9",
    "priority": 1
  },
  {
    "lat": "45.4219466",
    "lng": "-75.6387057",
    "id": 2219317,
    "name": "GNC",
    "address": "1200 St.Laurent Blvd",
    "country": "Canada",
    "state": "ON",
    "city": "Ottawa",
    "postal": "K1K 3B8",
    "priority": 1
  },
  {
    "lat": "44.5761303",
    "lng": "-80.918771",
    "id": 2219318,
    "name": "GNC",
    "address": "1350 16th Street East",
    "country": "Canada",
    "state": "ON",
    "city": "Owen Sound",
    "postal": "N4K 6N7",
    "priority": 1
  },
  {
    "lat": "44.2831658",
    "lng": "-78.3311261",
    "id": 2219319,
    "name": "GNC",
    "address": "645 Lansdowne St Unit #113",
    "country": "Canada",
    "state": "ON",
    "city": "Peterborough",
    "postal": "K9J 7Y5",
    "priority": 1
  },
  {
    "lat": "42.9824949",
    "lng": "-82.3523053",
    "id": 2219320,
    "name": "GNC",
    "address": "1380 London Road Unit 33",
    "country": "Canada",
    "state": "ON",
    "city": "Sarnia",
    "postal": "N7S 1P8",
    "priority": 1
  },
  {
    "lat": "43.7243549",
    "lng": "-79.3008685",
    "id": 2219321,
    "name": "GNC",
    "address": "63 Eglinton Square",
    "country": "Canada",
    "state": "ON",
    "city": "Scarborough",
    "postal": "M1L 2K1",
    "priority": 1
  },
  {
    "lat": "43.8092547",
    "lng": "-79.2696046",
    "id": 2219322,
    "name": "GNC",
    "address": "1571 Sandhurst Circle",
    "country": "Canada",
    "state": "ON",
    "city": "Scarborough",
    "postal": "M1V 1V2",
    "priority": 1
  },
  {
    "lat": "43.1360847",
    "lng": "-79.2240958",
    "id": 2219323,
    "name": "GNC",
    "address": "221 Glendale Ave",
    "country": "Canada",
    "state": "ON",
    "city": "St.Catherines",
    "postal": "L2T 2K9",
    "priority": 1
  },
  {
    "lat": "42.7761759",
    "lng": "-81.1601065",
    "id": 2219324,
    "name": "GNC",
    "address": "417 Wellington Street",
    "country": "Canada",
    "state": "ON",
    "city": "St.Thomas",
    "postal": "N5R 5J5",
    "priority": 1
  },
  {
    "lat": "43.2311747",
    "lng": "-79.7655715",
    "id": 2219325,
    "name": "GNC",
    "address": "75 Centennial Pkwy N",
    "country": "Canada",
    "state": "ON",
    "city": "Stoney Creek",
    "postal": "L8E 2P2",
    "priority": 1
  },
  {
    "lat": "43.8064592",
    "lng": "-79.4524571",
    "id": 2219326,
    "name": "GNC",
    "address": "1 Promenade Circle",
    "country": "Canada",
    "state": "ON",
    "city": "Thornhill",
    "postal": "L4J 4P8",
    "priority": 1
  },
  {
    "lat": "48.4022692",
    "lng": "-89.2440292",
    "id": 2219327,
    "name": "GNC",
    "address": "1000 Fort William Rd",
    "country": "Canada",
    "state": "ON",
    "city": "Thunder Bay",
    "postal": "P7B 6B9",
    "priority": 1
  },
  {
    "lat": "48.4732067",
    "lng": "-81.3827428",
    "id": 2219328,
    "name": "GNC",
    "address": "1500 Riverside Dr West",
    "country": "Canada",
    "state": "ON",
    "city": "Timmins",
    "postal": "P4R 1A1",
    "priority": 1
  },
  {
    "lat": "43.6413624",
    "lng": "-79.414053",
    "id": 2219329,
    "name": "GNC",
    "address": "1005 King St W",
    "country": "Canada",
    "state": "ON",
    "city": "Toronto",
    "postal": "M5V 1P5",
    "priority": 1
  },
  {
    "lat": "43.6553885",
    "lng": "-79.4356207",
    "id": 2219330,
    "name": "GNC",
    "address": "900 Dufferin St",
    "country": "Canada",
    "state": "ON",
    "city": "Toronto",
    "postal": "M6H 4B1",
    "priority": 1
  },
  {
    "lat": "43.4699599",
    "lng": "-80.5156591",
    "id": 2219331,
    "name": "GNC",
    "address": "94 Bridgeport Rd E #13&14",
    "country": "Canada",
    "state": "ON",
    "city": "Waterloo",
    "postal": "N2J 2N9",
    "priority": 1
  },
  {
    "lat": "42.2743221",
    "lng": "-83.0018047",
    "id": 2219332,
    "name": "GNC",
    "address": "3100 Howard Ave",
    "country": "Canada",
    "state": "ON",
    "city": "Windsor",
    "postal": "N8X 3Y8",
    "priority": 1
  },
  {
    "lat": "43.7854746",
    "lng": "-79.5440944",
    "id": 2219333,
    "name": "GNC",
    "address": "31 Colusses Centre",
    "country": "Canada",
    "state": "ON",
    "city": "Woodbridge",
    "postal": "L4L 9K4",
    "priority": 1
  },
  {
    "lat": "45.4715857",
    "lng": "-73.4716105",
    "id": 2219334,
    "name": "GNC",
    "address": "2151 Blvd LaPciniere",
    "country": "Canada",
    "state": "QC",
    "city": "Brossard",
    "postal": "J4W 2T5",
    "priority": 1
  },
  {
    "lat": "45.8996723",
    "lng": "-72.5170553",
    "id": 2219335,
    "name": "GNC",
    "address": "755 Blvd Rene-Levesque",
    "country": "Canada",
    "state": "QC",
    "city": "Drummondville",
    "postal": "J2C 6Y7",
    "priority": 1
  },
  {
    "lat": "45.4138075",
    "lng": "-72.7500133",
    "id": 2219336,
    "name": "GNC",
    "address": "40 Evangeline Street",
    "country": "Canada",
    "state": "QC",
    "city": "Granby",
    "postal": "J2G 8K1",
    "priority": 1
  },
  {
    "lat": "45.519713",
    "lng": "-73.555266",
    "id": 2219337,
    "name": "GNC",
    "address": "1323 Rue Ste-Catherine Es",
    "country": "Canada",
    "state": "QC",
    "city": "Montreal",
    "postal": "H2L 2H4",
    "priority": 1
  },
  {
    "lat": "50.4043447",
    "lng": "-105.5298077",
    "id": 2219338,
    "name": "GNC",
    "address": "1235 Main St N. Unit 4",
    "country": "Canada",
    "state": "SK",
    "city": "Moose Jaw",
    "postal": "S6H 6M4",
    "priority": 1
  },
  {
    "lat": "53.2005605",
    "lng": "-105.7568476",
    "id": 2219339,
    "name": "GNC",
    "address": "1403 Central Ave",
    "country": "Canada",
    "state": "SK",
    "city": "Prince Albert",
    "postal": "S6V 7J4",
    "priority": 1
  },
  {
    "lat": "50.4024646",
    "lng": "-104.6231499",
    "id": 2219340,
    "name": "GNC",
    "address": "2965 Gordon Road",
    "country": "Canada",
    "state": "SK",
    "city": "Regina",
    "postal": "S4S 6H7",
    "priority": 1
  },
  {
    "lat": "52.1142132",
    "lng": "-106.6010301",
    "id": 2219341,
    "name": "GNC",
    "address": "3310 8th Street East",
    "country": "Canada",
    "state": "SK",
    "city": "Saskatoon",
    "postal": "S7H 0W6",
    "priority": 1
  },
  {
    "lat": "52.1275159",
    "lng": "-106.6676245",
    "id": 2219342,
    "name": "GNC",
    "address": "201 1 Ave S T067",
    "country": "Canada",
    "state": "SK",
    "city": "Saskatoon",
    "postal": "S7K 1J9",
    "priority": 1
  },
  {
    "lat": "52.1688865",
    "lng": "-106.6398318",
    "id": 2219343,
    "name": "GNC",
    "address": "134 Primrose Drive",
    "country": "Canada",
    "state": "SK",
    "city": "Saskatoon",
    "postal": "S7K 5S6",
    "priority": 1
  },
  {
    "lat": "48.4043941",
    "lng": "-71.0553013",
    "id": 2219344,
    "name": "GNC",
    "address": "1401 Boulevard Talbot",
    "country": "Canada",
    "state": "QC",
    "city": "Chicoutimi",
    "postal": "G7H5N8",
    "priority": 1
  },
  {
    "lat": "45.5900109",
    "lng": "-73.5392252",
    "id": 2219345,
    "name": "GNC",
    "address": "7275 Rue Sherbrooke Est, Space 205",
    "country": "Canada",
    "state": "QC",
    "city": "Montreal",
    "postal": "H1N 1E9",
    "priority": 1
  },
  {
    "lat": "45.4477174",
    "lng": "-73.6150661",
    "id": 2219346,
    "name": "GNC",
    "address": "7077 Newman Blvd, Space 1770",
    "country": "Canada",
    "state": "QC",
    "city": "LaSalle",
    "postal": "H8N 1X1",
    "priority": 1
  },
  {
    "lat": "45.4628657",
    "lng": "-73.8306662",
    "id": 2219347,
    "name": "GNC",
    "address": "6801 Trans Canada Highway, Unit C023",
    "country": "Canada",
    "state": "QC",
    "city": "Pointe Claire",
    "postal": "H9R 5J2",
    "priority": 1
  },
  {
    "lat": "45.8996723",
    "lng": "-72.5170553",
    "id": 2219348,
    "name": "GNC",
    "address": "755 René-Lévesque Blvd, Unit 350",
    "country": "Canada",
    "state": "QC",
    "city": "Drummondville",
    "postal": "J2C 6Y7",
    "priority": 1
  },
  {
    "lat": "49.5252943",
    "lng": "-115.7505558",
    "id": 2219349,
    "name": "GNC",
    "address": "1500 Cranbrook St. N, Suite 115",
    "country": "Canada",
    "state": "AB",
    "city": "Cranbrook",
    "postal": "V1C 3S8",
    "priority": 1
  },
  {
    "lat": "51.2032209",
    "lng": "-113.9930715",
    "id": 2219350,
    "name": "GNC",
    "address": "261055 Cross Iron Blvd.",
    "country": "Canada",
    "state": "AB",
    "city": "Rocky View",
    "postal": "T4A 0G3",
    "priority": 1
  },
  {
    "lat": "43.5584112",
    "lng": "-79.7117817",
    "id": 2219351,
    "name": "GNC",
    "address": "5100 Erin Mills Pkwy, Unit E204",
    "country": "Canada",
    "state": "ON",
    "city": "Mississauga",
    "postal": "L5M 4Z5",
    "priority": 1
  },
  {
    "lat": "49.8772088",
    "lng": "-97.1227938",
    "id": 2219352,
    "name": "GNC",
    "address": "130-1225 St. Mary's Road",
    "country": "Canada",
    "state": "MB",
    "city": "Winnipeg",
    "postal": "R2M 5E5",
    "priority": 1
  },
  {
    "lat": "49.883912",
    "lng": "-97.1988917",
    "id": 2219353,
    "name": "GNC",
    "address": "1485 Portage Avenue, #270",
    "country": "Canada",
    "state": "MB",
    "city": "Winnipeg",
    "postal": "R3G 0W4",
    "priority": 1
  },
  {
    "lat": "43.5661205",
    "lng": "-80.2784324",
    "id": 2219354,
    "name": "GNC",
    "address": "3 Woodlawn Road West",
    "country": "Canada",
    "state": "ON",
    "city": "Guelph",
    "postal": "N1H1G8",
    "priority": 1
  },
  {
    "lat": "43.001857",
    "lng": "-81.1736335",
    "id": 2219355,
    "name": "GNC",
    "address": "332 Clarke Rd #6",
    "country": "Canada",
    "state": "ON",
    "city": "London",
    "postal": "N5W5G1",
    "priority": 1
  },
  {
    "lat": "43.4998949",
    "lng": "-80.1870706",
    "id": 2219356,
    "name": "GNC",
    "address": "103 Clair Road East",
    "country": "Canada",
    "state": "ON",
    "city": "Guelph",
    "postal": "N1L0J7",
    "priority": 1
  },
  {
    "lat": "43.2503556",
    "lng": "-79.8099755",
    "id": 2219357,
    "name": "GNC",
    "address": "1241 Barton St East",
    "country": "Canada",
    "state": "ON",
    "city": "Hamilton",
    "postal": "L8H2V4",
    "priority": 1
  },
  {
    "lat": "43.3683963",
    "lng": "-79.7545765",
    "id": 2219358,
    "name": "GNC",
    "address": "491 Appleby Line",
    "country": "Canada",
    "state": "ON",
    "city": "Burlington",
    "postal": "L7L1V2",
    "priority": 1
  },
  {
    "lat": "43.1592297",
    "lng": "-79.1754871",
    "id": 2219359,
    "name": "GNC",
    "address": "300 Taylor Rd",
    "country": "Canada",
    "state": "ON",
    "city": "Niagara On The Lake",
    "postal": "L0S1J0",
    "priority": 1
  },
  {
    "lat": "49.8244247",
    "lng": "-97.2024008",
    "id": 2219360,
    "name": "GNC",
    "address": "1649 Kenaston Blvd",
    "country": "Canada",
    "state": "MB",
    "city": "Winnipeg",
    "postal": "R3P 2M4",
    "priority": 1
  },
  {
    "lat": "43.7768409",
    "lng": "-79.3460276",
    "id": 2219361,
    "name": "GNC",
    "address": "1800 Sheppard Avenue East",
    "country": "Canada",
    "state": "ON",
    "city": "Willowdale",
    "postal": "M2J5A7",
    "priority": 1
  },
  {
    "lat": "43.6494957",
    "lng": "-79.3795298",
    "id": 2219362,
    "name": "GNC",
    "address": "40 King St West",
    "country": "Canada",
    "state": "ON",
    "city": "Toronto",
    "postal": "M5H3Y2",
    "priority": 1
  },
  {
    "lat": "45.9882065",
    "lng": "-66.6313799",
    "id": 2219363,
    "name": "GNC",
    "address": "5 Two Nations Crossing",
    "country": "Canada",
    "state": "NB",
    "city": "Fredericton",
    "postal": "E3A0T3",
    "priority": 1
  },
  {
    "lat": "45.5284663",
    "lng": "-73.64819",
    "id": 2219364,
    "name": "GNC",
    "address": "2305 Chemin Rockland Angle Acadie",
    "country": "Canada",
    "state": "QC",
    "city": "Montreal",
    "postal": "H3P3E9",
    "priority": 1
  },
  {
    "lat": "50.7039254",
    "lng": "-113.9475641",
    "id": 2219365,
    "name": "GNC",
    "address": "213-105 Southbank",
    "country": "Canada",
    "state": "AB",
    "city": "Okotoks",
    "postal": "T1S0G1",
    "priority": 1
  },
  {
    "lat": "50.7039254",
    "lng": "-113.9475641",
    "id": 2219366,
    "name": "GNC",
    "address": "213-105 Southbank",
    "country": "Canada",
    "state": "AB",
    "city": "Okotoks",
    "postal": "T1S0G1",
    "priority": 1
  },
  {
    "lat": "43.1517263",
    "lng": "-79.2677303",
    "id": 2219236,
    "name": "GNC",
    "address": "420 Vansickle Rd",
    "country": "Canada",
    "state": "ON",
    "city": "St. Catharines",
    "postal": "L2R6P9",
    "priority": 1
  },
  {
    "lat": "49.8455798",
    "lng": "-97.2130723",
    "id": 2219237,
    "name": "GNC",
    "address": "555 Sterling Lyon Parkway #338",
    "country": "Canada",
    "state": "MB",
    "city": "Winnipeg",
    "postal": "R3P1C2",
    "priority": 1
  },
  {
    "lat": "53.3958873",
    "lng": "-113.4181616",
    "id": 2219238,
    "name": "GNC",
    "address": "5233 - 50 St Ellerslie Rd",
    "country": "Canada",
    "state": "AB",
    "city": "Edmonton",
    "postal": "T6X1A4",
    "priority": 1
  },
  {
    "lat": "50.9978823",
    "lng": "-114.0740046",
    "id": 2219239,
    "name": "GNC",
    "address": "6455 MacLeod Trail SW",
    "country": "Canada",
    "state": "AB",
    "city": "Calgary",
    "postal": "T2H 0K9",
    "priority": 1
  },
  {
    "lat": "51.1077816",
    "lng": "-114.0413081",
    "id": 2219240,
    "name": "GNC",
    "address": "901-64th Ave NE",
    "country": "Canada",
    "state": "AB",
    "city": "Calgary",
    "postal": "T2E 7P4",
    "priority": 1
  },
  {
    "lat": "51.0536632",
    "lng": "-114.0856165",
    "id": 2219241,
    "name": "GNC",
    "address": "146 10th Street NW",
    "country": "Canada",
    "state": "AB",
    "city": "Calgary",
    "postal": "T2N 1V3",
    "priority": 1
  },
  {
    "lat": "50.8992524",
    "lng": "-114.0626068",
    "id": 2219242,
    "name": "GNC",
    "address": "210-350 Shawville Blvd SE",
    "country": "Canada",
    "state": "AB",
    "city": "Calgary",
    "postal": "T2Y 3S4",
    "priority": 1
  },
  {
    "lat": "50.9329042",
    "lng": "-113.9626399",
    "id": 2219243,
    "name": "GNC",
    "address": "4916-130 Ave SE",
    "country": "Canada",
    "state": "AB",
    "city": "Calgary",
    "postal": "T2Z 0G4",
    "priority": 1
  },
  {
    "lat": "51.0738879",
    "lng": "-113.9856369",
    "id": 2219244,
    "name": "GNC",
    "address": "2525-36th Street NE",
    "country": "Canada",
    "state": "AB",
    "city": "Calgary",
    "postal": "T1Y 5T4",
    "priority": 1
  },
  {
    "lat": "53.564194",
    "lng": "-113.508499",
    "id": 2219245,
    "name": "GNC",
    "address": "109 St Prin Elizabeth Ave",
    "country": "Canada",
    "state": "AB",
    "city": "Edmonton",
    "postal": "T5G 3A6",
    "priority": 1
  },
  {
    "lat": "53.5997845",
    "lng": "-113.4428338",
    "id": 2219246,
    "name": "GNC",
    "address": "137th Avenue And 66th Street",
    "country": "Canada",
    "state": "AB",
    "city": "Edmonton",
    "postal": "T5C 3C8",
    "priority": 1
  },
  {
    "lat": "53.4506448",
    "lng": "-113.483616",
    "id": 2219247,
    "name": "GNC",
    "address": "2057-98th Street NW",
    "country": "Canada",
    "state": "AB",
    "city": "Edmonton",
    "postal": "T6N 1K2",
    "priority": 1
  },
  {
    "lat": "53.4856393",
    "lng": "-113.5136882",
    "id": 2219248,
    "name": "GNC",
    "address": "5015-111 Street NW",
    "country": "Canada",
    "state": "AB",
    "city": "Edmonton",
    "postal": "T6H 4M6",
    "priority": 1
  },
  {
    "lat": "53.522642",
    "lng": "-113.6174423",
    "id": 2219249,
    "name": "GNC",
    "address": "8770 170th Street STE 2395",
    "country": "Canada",
    "state": "AB",
    "city": "Edmonton",
    "postal": "T5T 3J7",
    "priority": 1
  },
  {
    "lat": "55.1675652",
    "lng": "-118.8470406",
    "id": 2219250,
    "name": "GNC",
    "address": "9837 116 St #103",
    "country": "Canada",
    "state": "AB",
    "city": "Grand Prairie",
    "postal": "T8V 8A5",
    "priority": 1
  },
  {
    "lat": "49.6987304",
    "lng": "-112.8405995",
    "id": 2219251,
    "name": "GNC",
    "address": "501 First Avenue",
    "country": "Canada",
    "state": "AB",
    "city": "Lethbridge",
    "postal": "T1J 4I9",
    "priority": 1
  },
  {
    "lat": "52.2433592",
    "lng": "-113.8102136",
    "id": 2219252,
    "name": "GNC",
    "address": "4900 Molly Banister Dr",
    "country": "Canada",
    "state": "AB",
    "city": "Red Deer",
    "postal": "T4R 1N9",
    "priority": 1
  },
  {
    "lat": "49.049673",
    "lng": "-122.3127539",
    "id": 2219253,
    "name": "GNC",
    "address": "32900 South Fraser Way",
    "country": "Canada",
    "state": "BC",
    "city": "Abbotsford",
    "postal": "V2S 5A1",
    "priority": 1
  },
  {
    "lat": "49.2681552",
    "lng": "-123.0005819",
    "id": 2219254,
    "name": "GNC",
    "address": "4567 Lougheed Hwy",
    "country": "Canada",
    "state": "BC",
    "city": "Burnaby",
    "postal": "V5C 3Z6",
    "priority": 1
  },
  {
    "lat": "49.2502266",
    "lng": "-122.8958023",
    "id": 2219255,
    "name": "GNC",
    "address": "9855 Austin Ave",
    "country": "Canada",
    "state": "BC",
    "city": "Burnaby",
    "postal": "V3J 1N4",
    "priority": 1
  },
  {
    "lat": "49.2255447",
    "lng": "-122.9995782",
    "id": 2219256,
    "name": "GNC",
    "address": "135-4800 Kingsway",
    "country": "Canada",
    "state": "BC",
    "city": "Burnaby",
    "postal": "V5H 4J2",
    "priority": 1
  },
  {
    "lat": "49.2798295",
    "lng": "-122.7980735",
    "id": 2219257,
    "name": "GNC",
    "address": "2929 Barnet Highway",
    "country": "Canada",
    "state": "BC",
    "city": "Coquitlam",
    "postal": "V3B 5R5",
    "priority": 1
  },
  {
    "lat": "49.6735198",
    "lng": "-124.9837886",
    "id": 2219258,
    "name": "GNC",
    "address": "2751 Cliffe Ave",
    "country": "Canada",
    "state": "BC",
    "city": "Courtenay",
    "postal": "V9N 2L8",
    "priority": 1
  },
  {
    "lat": "55.7490333",
    "lng": "-120.2245042",
    "id": 2219259,
    "name": "GNC",
    "address": "112 Avenue and 8th St",
    "country": "Canada",
    "state": "BC",
    "city": "Dawson Creek",
    "postal": "V1G 4K6",
    "priority": 1
  },
  {
    "lat": "50.6547847",
    "lng": "-120.3715734",
    "id": 2219260,
    "name": "GNC",
    "address": "275-1320 W Trans Canada Hwy",
    "country": "Canada",
    "state": "BC",
    "city": "Kamloops",
    "postal": "V1S 1J2",
    "priority": 1
  },
  {
    "lat": "49.879312",
    "lng": "-119.4402135",
    "id": 2219261,
    "name": "GNC",
    "address": "2271 Harvey Ave",
    "country": "Canada",
    "state": "BC",
    "city": "Kelowna",
    "postal": "V1Y 6H2",
    "priority": 1
  },
  {
    "lat": "49.1146628",
    "lng": "-122.6741906",
    "id": 2219262,
    "name": "GNC",
    "address": "19705 Fraser HWY",
    "country": "Canada",
    "state": "BC",
    "city": "Langley",
    "postal": "V3A 7E9",
    "priority": 1
  },
  {
    "lat": "49.2183485",
    "lng": "-122.5984989",
    "id": 2219263,
    "name": "GNC",
    "address": "25-11900 Haney Pl",
    "country": "Canada",
    "state": "BC",
    "city": "Maple Ridge",
    "postal": "V2X 8R9",
    "priority": 1
  },
  {
    "lat": "46.451496",
    "lng": "-71.0228068",
    "id": 2218460,
    "name": "Go Hockey (Quebec)",
    "address": "1465 3e avenue",
    "country": "Canada",
    "state": "QC",
    "city": "Sainte-Marie",
    "postal": "G6E 3V3",
    "priority": 1
  },
  {
    "lat": "45.390427",
    "lng": "-73.570472",
    "id": 2218478,
    "name": "Goalie King Inc. (St.Catherines))",
    "address": "5040 Route 132",
    "country": "Canada",
    "state": "QC",
    "city": "Ste-Catherine",
    "postal": "J5C 1L8",
    "priority": 1
  },
  {
    "lat": "43.7963218",
    "lng": "-79.5365417",
    "id": 2218442,
    "name": "Golf Smith",
    "address": "810 Applewood Cres",
    "country": "Canada",
    "state": "ON",
    "city": "Vaughan",
    "postal": "L4K0E3",
    "priority": 1
  },
  {
    "lat": "49.8625726",
    "lng": "-97.3751619",
    "id": 2218342,
    "name": "Golfdale Entertainment",
    "address": "7620 Roblin Blvd",
    "country": "Canada",
    "state": "MB",
    "city": "Headingley",
    "postal": "R4H 1A7",
    "priority": 1
  },
  {
    "lat": "47.6502266",
    "lng": "-65.6728722",
    "id": 2218281,
    "name": "Gowan Brae GC",
    "address": "150 Youghall Dr.",
    "country": "Canada",
    "state": "NB",
    "city": "Bathurst",
    "postal": "E2A4X5",
    "priority": 1
  },
  {
    "lat": "55.1307575",
    "lng": "-118.7733828",
    "id": 2218388,
    "name": "Grande Prairie Golf and Country Club",
    "address": "711040 Resources Road",
    "country": "Canada",
    "state": "AB",
    "city": "Grande Prairie",
    "postal": "T8V 3A7",
    "priority": 1
  },
  {
    "lat": "45.353068",
    "lng": "-79.1684634",
    "id": 2218325,
    "name": "Grandview (O'Meara)",
    "address": "245 Grandview Dr N",
    "country": "Canada",
    "state": "ON",
    "city": "Huntsville",
    "postal": "P1H 1B4",
    "priority": 1
  },
  {
    "lat": "49.1884807",
    "lng": "-122.8004432",
    "id": 2218584,
    "name": "Great Life Fitness",
    "address": "10242 152st,",
    "country": "Canada",
    "state": "BC",
    "city": "Surrey",
    "postal": "V3R 6N7",
    "priority": 1
  },
  {
    "lat": "45.3560895",
    "lng": "-75.4470899",
    "id": 2218247,
    "name": "Greyhawk",
    "address": "4999 Boundary Road",
    "country": "Canada",
    "state": "ON",
    "city": "Cumberland",
    "postal": "K4B 1P5",
    "priority": 1
  },
  {
    "lat": "43.5476357",
    "lng": "-79.950156",
    "id": 2218250,
    "name": "Greystone",
    "address": "9689 Dublin Line",
    "country": "Canada",
    "state": "ON",
    "city": "Milton",
    "postal": "L9T 2X7",
    "priority": 1
  },
  {
    "lat": "33.1899175",
    "lng": "-117.3594549",
    "id": 2219408,
    "name": "Health Products Emporium",
    "address": "1759 Oceanside Blvd. Suite D",
    "country": "USA",
    "state": "CA",
    "city": "Oceanside",
    "postal": "92054",
    "priority": 1
  },
  {
    "lat": "51.7963202",
    "lng": "-114.1348137",
    "id": 2218944,
    "name": "Health Street",
    "address": "840-6700 46 street",
    "country": "Canada",
    "state": "AB",
    "city": "Olds",
    "postal": "T4H 0A2",
    "priority": 1
  },
  {
    "lat": "43.6107981",
    "lng": "-79.5837846",
    "id": 2218755,
    "name": "Healthy Planet",
    "address": "1425 Dundas St East",
    "country": "Canada",
    "state": "ON",
    "city": "Mississauga",
    "postal": "L4X 1L4",
    "priority": 1
  },
  {
    "lat": "43.8843528",
    "lng": "-79.4412427",
    "id": 2218761,
    "name": "Healthy Planet",
    "address": "10520 Yonge St. Unit 20",
    "country": "Canada",
    "state": "ON",
    "city": "Richmond Hill",
    "postal": "L4C 3C7",
    "priority": 1
  },
  {
    "lat": "43.4484645",
    "lng": "-79.7004581",
    "id": 2218762,
    "name": "Healthy Planet",
    "address": "210 North Service Road W",
    "country": "Canada",
    "state": "ON",
    "city": "Oakville",
    "postal": "L6M 2Y2",
    "priority": 1
  },
  {
    "lat": "43.760207",
    "lng": "-79.2281321",
    "id": 2218768,
    "name": "Healthy Planet",
    "address": "3434 Lawrence Ave. East",
    "country": "Canada",
    "state": "ON",
    "city": "Scarborough",
    "postal": "M1H 1A9",
    "priority": 1
  },
  {
    "lat": "43.7251356",
    "lng": "-79.291182",
    "id": 2218770,
    "name": "Healthy Planet",
    "address": "8 Lebovic Avenue",
    "country": "Canada",
    "state": "ON",
    "city": "Scarborough",
    "postal": "M1L 4P9",
    "priority": 1
  },
  {
    "lat": "43.0097859",
    "lng": "-81.3348705",
    "id": 2218771,
    "name": "Healthy Planet",
    "address": "1965 Hyde Park Road",
    "country": "Canada",
    "state": "ON",
    "city": "London",
    "postal": "N6H 0A3",
    "priority": 1
  },
  {
    "lat": "44.3185711",
    "lng": "-78.3323933",
    "id": 2218772,
    "name": "Healthy Planet",
    "address": "871 Chemong Rd",
    "country": "Canada",
    "state": "ON",
    "city": "Peterborough",
    "postal": "K9H 5Z5",
    "priority": 1
  },
  {
    "lat": "43.6429123",
    "lng": "-79.3854024",
    "id": 2218721,
    "name": "Healthy Planet",
    "address": "222 Bremner Blvd",
    "country": "Canada",
    "state": "ON",
    "city": "Toronto",
    "postal": "M5V3L9",
    "priority": 1
  },
  {
    "lat": "43.7383048",
    "lng": "-79.3209417",
    "id": 2218722,
    "name": "Healthy Planet",
    "address": "47 Railside Road",
    "country": "Canada",
    "state": "ON",
    "city": "North York",
    "postal": "M3A 1B2",
    "priority": 1
  },
  {
    "lat": "43.64387",
    "lng": "-79.3868051",
    "id": 2218723,
    "name": "Healthy Planet",
    "address": "255 Front Street W",
    "country": "Canada",
    "state": "ON",
    "city": "Toronto",
    "postal": "M5V 2W6",
    "priority": 1
  },
  {
    "lat": "43.8838701",
    "lng": "-78.9124381",
    "id": 2218724,
    "name": "Healthy Planet",
    "address": "80 Thickson Rd. S",
    "country": "Canada",
    "state": "ON",
    "city": "Whitby",
    "postal": "L1N 7T2",
    "priority": 1
  },
  {
    "lat": "43.7574406",
    "lng": "-79.3125485",
    "id": 2218726,
    "name": "Healthy Planet",
    "address": "85 Ellesmere Rd.",
    "country": "Canada",
    "state": "ON",
    "city": "Scarborough",
    "postal": "M1R 4B7",
    "priority": 1
  },
  {
    "lat": "43.8693131",
    "lng": "-79.2844249",
    "id": 2218727,
    "name": "Healthy Planet",
    "address": "8567 McCowan Rd",
    "country": "Canada",
    "state": "ON",
    "city": "Markham",
    "postal": "L3P 1W9",
    "priority": 1
  },
  {
    "lat": "43.7065581",
    "lng": "-79.3608559",
    "id": 2218728,
    "name": "Healthy Planet",
    "address": "95 Laird Drive",
    "country": "Canada",
    "state": "ON",
    "city": "Toronto",
    "postal": "M4G 3T7",
    "priority": 1
  },
  {
    "lat": "43.6298831",
    "lng": "-79.5186276",
    "id": 2218743,
    "name": "Healthy Planet",
    "address": "1000 Islington Avenue",
    "country": "Canada",
    "state": "ON",
    "city": "Etobicoke",
    "postal": "M8Z 4P8",
    "priority": 1
  },
  {
    "lat": "43.6204946",
    "lng": "-79.5131983",
    "id": 2218744,
    "name": "Healthy Planet",
    "address": "1000 IslingtonÊAvenue",
    "country": "Canada",
    "state": "ON",
    "city": "Etobicoke",
    "postal": "M8Z 4P8",
    "priority": 1
  },
  {
    "lat": "43.8487646",
    "lng": "-79.0714882",
    "id": 2218745,
    "name": "Healthy Planet",
    "address": "1725 Kingston Rd",
    "country": "Canada",
    "state": "ON",
    "city": "Pickering",
    "postal": "L1V 4L9",
    "priority": 1
  },
  {
    "lat": "43.7563063",
    "lng": "-79.4392228",
    "id": 2218746,
    "name": "Healthy Planet",
    "address": "588 Sheppard Av. W",
    "country": "Canada",
    "state": "ON",
    "city": "Toronto",
    "postal": "M3H 2S1",
    "priority": 1
  },
  {
    "lat": "43.358194",
    "lng": "-79.7805067",
    "id": 2218747,
    "name": "Healthy Planet",
    "address": "3500 Fairview St",
    "country": "Canada",
    "state": "ON",
    "city": "Burlington",
    "postal": "L7N 2R5",
    "priority": 1
  },
  {
    "lat": "43.672734",
    "lng": "-79.4708416",
    "id": 2218748,
    "name": "Healthy Planet",
    "address": "1980 St. Clair Avenue West,",
    "country": "Canada",
    "state": "ON",
    "city": "Toronto",
    "postal": "M6N 0A3",
    "priority": 1
  },
  {
    "lat": "43.7068028",
    "lng": "-79.7347639",
    "id": 2218735,
    "name": "Healthy Planet Brampton",
    "address": "150 West Drive",
    "country": "Canada",
    "state": "ON",
    "city": "Brampton",
    "postal": "L6T 4P9",
    "priority": 1
  },
  {
    "lat": "43.7068028",
    "lng": "-79.7347639",
    "id": 2218736,
    "name": "Healthy Planet Brampton",
    "address": "150 West Drive",
    "country": "Canada",
    "state": "ON",
    "city": "Brampton",
    "postal": "L6T 4P9",
    "priority": 1
  },
  {
    "lat": "43.6786558",
    "lng": "-79.3471601",
    "id": 2218737,
    "name": "Healthy Planet Danforth",
    "address": "568 Danforth Ave",
    "country": "Canada",
    "state": "ON",
    "city": "Toronto",
    "postal": "M4K 1R1",
    "priority": 1
  },
  {
    "lat": "43.5154331",
    "lng": "-79.6869563",
    "id": 2218738,
    "name": "Healthy Planet Oakville",
    "address": "2501 Hyde Park Gate",
    "country": "Canada",
    "state": "ON",
    "city": "Oakville",
    "postal": "L6H 6G6",
    "priority": 1
  },
  {
    "lat": "43.9506598",
    "lng": "-78.8982489",
    "id": 2218575,
    "name": "Hemy Hockey",
    "address": "2200 Simcoe Road North",
    "country": "Canada",
    "state": "ON",
    "city": "Oshawa",
    "postal": "L1G 4Y3",
    "priority": 1
  },
  {
    "lat": "43.6652421",
    "lng": "-79.4120327",
    "id": 2218243,
    "name": "Herbs and Nutrition - Bloor",
    "address": "572 Bloor St. W",
    "country": "Canada",
    "state": "ON",
    "city": "Toronto",
    "postal": "M6G 1K1",
    "priority": 1
  },
  {
    "lat": "43.9770876",
    "lng": "-78.1716736",
    "id": 2218703,
    "name": "Herc's Coburg",
    "address": "9 Elgin St E",
    "country": "Canada",
    "state": "ON",
    "city": "Coburg",
    "postal": "K9A 0A1",
    "priority": 1
  },
  {
    "lat": "53.5612095",
    "lng": "-113.4376277",
    "id": 2218326,
    "name": "Highlands Golf Club",
    "address": "6603 Ada Boulevard",
    "country": "Canada",
    "state": "AB",
    "city": "Edmonton",
    "postal": "T5W 4N5",
    "priority": 1
  },
  {
    "lat": "45.5281968",
    "lng": "-73.6481237",
    "id": 2218528,
    "name": "Hockey Experts",
    "address": "2305 Rockland ,suite 0320",
    "country": "Canada",
    "state": "QC",
    "city": "Ville Mont-Royal",
    "postal": "H3P 3E9",
    "priority": 1
  },
  {
    "lat": "45.4476961",
    "lng": "-73.6155388",
    "id": 2218540,
    "name": "Hockey Experts",
    "address": "7077 BOUL NEWMAN (LOC500)",
    "country": "Canada",
    "state": "QC",
    "city": "Lasalle",
    "postal": "H8N1X1",
    "priority": 1
  },
  {
    "lat": "48.1041762",
    "lng": "-77.7870694",
    "id": 2218543,
    "name": "Hockey Experts",
    "address": "1265 7ieme rue",
    "country": "Canada",
    "state": "QC",
    "city": "Val-D'Or",
    "postal": "J9P 3R9",
    "priority": 1
  },
  {
    "lat": "45.5638467",
    "lng": "-73.7938844",
    "id": 2218544,
    "name": "Hockey Experts",
    "address": "4855 Louis-B Mayer",
    "country": "Canada",
    "state": "QC",
    "city": "Laval",
    "postal": "H7P 6C8",
    "priority": 1
  },
  {
    "lat": "45.6314047",
    "lng": "-73.8178734",
    "id": 2218545,
    "name": "Hockey Experts",
    "address": "401 boul.Cure-labelle",
    "country": "Canada",
    "state": "QC",
    "city": "Rosemere",
    "postal": "J7A 3T2",
    "priority": 1
  },
  {
    "lat": "45.5638467",
    "lng": "-73.7938844",
    "id": 2218550,
    "name": "Hockey Experts",
    "address": "4855 Louis-B Mayer",
    "country": "Canada",
    "state": "QC",
    "city": "Laval",
    "postal": "H7P 6C8",
    "priority": 1
  },
  {
    "lat": "46.7289943",
    "lng": "-71.2720424",
    "id": 2218551,
    "name": "Hockey Experts",
    "address": "675 rue de la Concorde",
    "country": "Canada",
    "state": "QC",
    "city": "Saint-Romuald",
    "postal": "G6W 8A7",
    "priority": 1
  },
  {
    "lat": "45.3988087",
    "lng": "-71.9130808",
    "id": 2218552,
    "name": "Hockey Experts",
    "address": "1495 King Ouest",
    "country": "Canada",
    "state": "QC",
    "city": "Sherbrooke",
    "postal": "J1J 2C1",
    "priority": 1
  },
  {
    "lat": "45.3583089",
    "lng": "-73.7170993",
    "id": 2218556,
    "name": "Hockey Experts",
    "address": "298 Boul D'Anjou",
    "country": "Canada",
    "state": "QC",
    "city": "Chateauguay",
    "postal": "J6K1C6",
    "priority": 1
  },
  {
    "lat": "46.0571568",
    "lng": "-71.9403471",
    "id": 2218560,
    "name": "Hockey Experts",
    "address": "535 Boul Jutras Est",
    "country": "Canada",
    "state": "QC",
    "city": "Victoriaville",
    "postal": "G6P 7H4",
    "priority": 1
  },
  {
    "lat": "50.2208484",
    "lng": "-66.3841155",
    "id": 2218561,
    "name": "Hockey Experts",
    "address": "770 Boul Laure",
    "country": "Canada",
    "state": "QC",
    "city": "Sept-Iles",
    "postal": "G4R 1Y5",
    "priority": 1
  },
  {
    "lat": "46.3319299",
    "lng": "-72.5716377",
    "id": 2218566,
    "name": "Hockey Experts",
    "address": "2946 Boul Des Recollets",
    "country": "Canada",
    "state": "QC",
    "city": "Trois Rivieres",
    "postal": "G9A 6J2",
    "priority": 1
  },
  {
    "lat": "45.4049677",
    "lng": "-74.0454518",
    "id": 2218567,
    "name": "Hockey Experts",
    "address": "3218 boul.De La Gare",
    "country": "Canada",
    "state": "QC",
    "city": "Vaudreuil-Dorion",
    "postal": "J7V 8W5",
    "priority": 1
  },
  {
    "lat": "45.5638467",
    "lng": "-73.7938844",
    "id": 2218491,
    "name": "Hockey Experts",
    "address": "4855 Louis-B-Mayer",
    "country": "Canada",
    "state": "QC",
    "city": "Laval",
    "postal": "H7P 6C8",
    "priority": 1
  },
  {
    "lat": "43.0349438",
    "lng": "-88.1558398",
    "id": 2219427,
    "name": "Hockey Haven Inc.",
    "address": "19555 W. Bluemound Rd - Suite 14",
    "country": "USA",
    "state": "WI",
    "city": "Brookfield",
    "postal": "53045",
    "priority": 1
  },
  {
    "lat": "43.544543",
    "lng": "-96.7588509",
    "id": 2219386,
    "name": "Hockey Headquarters",
    "address": "301 S Garfield Ave",
    "country": "USA",
    "state": "SD",
    "city": "Sioux Falls",
    "postal": "57104",
    "priority": 1
  },
  {
    "lat": "46.8527443",
    "lng": "-114.0138843",
    "id": 2219398,
    "name": "Hockey Lacrosse Wolf",
    "address": "1010 North Ave W",
    "country": "USA",
    "state": "MT",
    "city": "Missoula",
    "postal": "59801",
    "priority": 1
  },
  {
    "lat": "42.9742333",
    "lng": "-87.9390889",
    "id": 2219424,
    "name": "Hockey Locker",
    "address": "2002 W. Howard Ave.",
    "country": "USA",
    "state": "WI",
    "city": "Milwaukee",
    "postal": "53221",
    "priority": 1
  },
  {
    "lat": "42.2961514",
    "lng": "-85.686853",
    "id": 2219377,
    "name": "Hockey Services",
    "address": "6958 West Main",
    "country": "USA",
    "state": "MI",
    "city": "Kalamazoo",
    "postal": "49009",
    "priority": 1
  },
  {
    "lat": "45.3748163",
    "lng": "-73.5261555",
    "id": 2218472,
    "name": "Hockey Supremacy (Candiac)",
    "address": "122 PAUL-GAUGUIN",
    "country": "Canada",
    "state": "QC",
    "city": "Candiac",
    "postal": "J5R 6X2",
    "priority": 1
  },
  {
    "lat": "45.4854341",
    "lng": "-73.8556428",
    "id": 2218473,
    "name": "Hockey Supremacy (Candiac)",
    "address": "14700, boul. Pierrefonds",
    "country": "Canada",
    "state": "QC",
    "city": "Pierrefonds",
    "postal": "H9H4Y6",
    "priority": 1
  },
  {
    "lat": "37.7372525",
    "lng": "-122.1950912",
    "id": 2219387,
    "name": "Hockey X-Superstore",
    "address": "210 Hegenberger Loop",
    "country": "USA",
    "state": "CA",
    "city": "Oakland",
    "postal": "94621",
    "priority": 1
  },
  {
    "lat": "45.547721",
    "lng": "-94.2259273",
    "id": 2219371,
    "name": "Hockey Zone",
    "address": "724 3rd Street South",
    "country": "USA",
    "state": "MN",
    "city": "Waite Park",
    "postal": "56387",
    "priority": 1
  },
  {
    "lat": "44.1815005",
    "lng": "-81.6087304",
    "id": 2218592,
    "name": "Home Hardware Kincardine",
    "address": "1770 Hwy 21",
    "country": "Canada",
    "state": "ON",
    "city": "Kincardine",
    "postal": "N2Z 2Y6",
    "priority": 1
  },
  {
    "lat": "53.5613661",
    "lng": "-113.5776093",
    "id": 2218349,
    "name": "Home Run Sports Edmonton",
    "address": "14820-112th Ave NW",
    "country": "Canada",
    "state": "AB",
    "city": "Edmonton",
    "postal": "T5M 2V2",
    "priority": 1
  },
  {
    "lat": "42.9248999",
    "lng": "-81.2191075",
    "id": 2218328,
    "name": "Home Run Sports Inc.",
    "address": "765 Exeter Rd",
    "country": "Canada",
    "state": "ON",
    "city": "London",
    "postal": "N6E 3T2",
    "priority": 1
  },
  {
    "lat": "53.5613661",
    "lng": "-113.5776093",
    "id": 2218329,
    "name": "Home Run Sports Inc.",
    "address": "14820-112th Ave NW",
    "country": "Canada",
    "state": "AB",
    "city": "Edmonton",
    "postal": "T5M 2V2",
    "priority": 1
  },
  {
    "lat": "43.6209004",
    "lng": "-79.5725479",
    "id": 2218330,
    "name": "Home Run Sports Inc.",
    "address": "1911 Dundas St East",
    "country": "Canada",
    "state": "ON",
    "city": "Mississauga",
    "postal": "L4X 1M1",
    "priority": 1
  },
  {
    "lat": "49.8401095",
    "lng": "-97.058145",
    "id": 2218331,
    "name": "Home Run Sports Inc.",
    "address": "20 De La Seigneurie Blvd",
    "country": "Canada",
    "state": "MB",
    "city": "Winnipeg",
    "postal": "R3X 0E9",
    "priority": 1
  },
  {
    "lat": "43.671491",
    "lng": "-79.293809",
    "id": 2218234,
    "name": "Hoopers Pharmacy",
    "address": "2136 Queen St. E",
    "country": "Canada",
    "state": "ON",
    "city": "Toronto",
    "postal": "M4E 1E3",
    "priority": 1
  },
  {
    "lat": "49.1319397",
    "lng": "-123.0928832",
    "id": 2218668,
    "name": "Ice Level Source for Sports",
    "address": "11688 Steveston Hwy #8060",
    "country": "Canada",
    "state": "BC",
    "city": "Richmond",
    "postal": "V7A 1N6",
    "priority": 1
  },
  {
    "lat": "49.9476699",
    "lng": "-97.1390062",
    "id": 2218293,
    "name": "Ice Time Sports",
    "address": "Unit 1-745 Kingsbury Ave",
    "country": "Canada",
    "state": "MB",
    "city": "Winnipeg",
    "postal": "R2V 3H9",
    "priority": 1
  },
  {
    "lat": "53.362451",
    "lng": "-113.731634",
    "id": 2218971,
    "name": "IGA",
    "address": "51 Superior St",
    "country": "Canada",
    "state": "AB",
    "city": "Devon",
    "postal": "T9G 1K8",
    "priority": 1
  },
  {
    "lat": "51.7049066",
    "lng": "-113.2682484",
    "id": 2218988,
    "name": "IGA",
    "address": "119 4 Ave N",
    "country": "Canada",
    "state": "AB",
    "city": "Three Hills",
    "postal": "T0M 2A0",
    "priority": 1
  },
  {
    "lat": "46.5521584",
    "lng": "-75.4705553",
    "id": 2218470,
    "name": "IS Sport (Mont-Laurier)",
    "address": "1400 , Boulevard Albiny Paquette",
    "country": "Canada",
    "state": "QC",
    "city": "Mont-Laurier",
    "postal": "J9L 1M7",
    "priority": 1
  },
  {
    "lat": "45.5205733",
    "lng": "-73.6263311",
    "id": 3540736,
    "name": "Jean Coutu",
    "address": "1365 BEAUMONT",
    "country": "Canada",
    "state": "QC",
    "city": "MONT-ROYAL",
    "postal": "H3P 2H7",
    "priority": 1
  },
  {
    "lat": "46.0554286",
    "lng": "-71.9589354",
    "id": 3540737,
    "name": "Jean Coutu",
    "address": "7, RUE NOTRE-DAME, EST",
    "country": "Canada",
    "state": "QC",
    "city": "VICTORIAVILLE",
    "postal": "G6P 3Z4",
    "priority": 1
  },
  {
    "lat": "45.4623648",
    "lng": "-73.8681108",
    "id": 3540738,
    "name": "Jean Coutu",
    "address": "4491 BOUL. ST-CHARLES",
    "country": "Canada",
    "state": "QC",
    "city": "PIERREFONDS",
    "postal": "H9H 3C7",
    "priority": 1
  },
  {
    "lat": "46.7933912",
    "lng": "-71.3514078",
    "id": 3540739,
    "name": "Jean Coutu",
    "address": "6385 BOUL.WILFRID-HAMEL",
    "country": "Canada",
    "state": "QC",
    "city": "ANCIENNE LORETTE ",
    "postal": "G2E 5W2",
    "priority": 1
  },
  {
    "lat": "45.371063",
    "lng": "-71.987156",
    "id": 3540740,
    "name": "Jean Coutu",
    "address": "4870 BOUL. BOURQUE",
    "country": "Canada",
    "state": "QC",
    "city": "SHERBROOKE",
    "postal": "J1N 3S5",
    "priority": 1
  },
  {
    "lat": "46.0382554",
    "lng": "-73.6992143",
    "id": 3540741,
    "name": "Jean Coutu",
    "address": "3285, 1ERE AVENUE, SUITE #100",
    "country": "Canada",
    "state": "QC",
    "city": "RAWDON",
    "postal": "J0K 1S0",
    "priority": 1
  },
  {
    "lat": "45.4969118",
    "lng": "-73.4078466",
    "id": 3540742,
    "name": "Jean Coutu",
    "address": "5950 BOUL. COUSINEAU",
    "country": "Canada",
    "state": "QC",
    "city": "SAINT-HUBERT",
    "postal": "J3Y 7R9",
    "priority": 1
  },
  {
    "lat": "45.1367585",
    "lng": "-71.804519",
    "id": 3540743,
    "name": "Jean Coutu",
    "address": "269 RUE CHILD",
    "country": "Canada",
    "state": "QC",
    "city": "COATICOOK",
    "postal": "J1A 2B5",
    "priority": 1
  },
  {
    "lat": "46.0857184",
    "lng": "-73.1880172",
    "id": 3540744,
    "name": "Jean Coutu",
    "address": "790 GILLES-VILLENEUVE",
    "country": "Canada",
    "state": "QC",
    "city": "BERTHIERVILLE",
    "postal": "J0K 1A0",
    "priority": 1
  },
  {
    "lat": "46.7289443",
    "lng": "-71.2081526",
    "id": 3540745,
    "name": "Jean Coutu",
    "address": "1018, RUE DE LA PRAIRIE, SUITE 101",
    "country": "Canada",
    "state": "QC",
    "city": "LEVIS ",
    "postal": "G6Z 0A7",
    "priority": 1
  },
  {
    "lat": "46.0529881",
    "lng": "-71.9425053",
    "id": 3540746,
    "name": "Jean Coutu",
    "address": "353 BOUL. BOIS-FRANCS SUD",
    "country": "Canada",
    "state": "QC",
    "city": "VICTORIAVILLE",
    "postal": "G6P 4T2",
    "priority": 1
  },
  {
    "lat": "46.3771011",
    "lng": "-75.9838855",
    "id": 3540747,
    "name": "Jean Coutu",
    "address": "50 RUE PRINCIPALE",
    "country": "Canada",
    "state": "QC",
    "city": "MANIWAKI",
    "postal": "J9E 1Z6",
    "priority": 1
  },
  {
    "lat": "47.448023",
    "lng": "-70.5187571",
    "id": 3540748,
    "name": "Jean Coutu",
    "address": "975 BOUL.MSGR-DE-LAVAL",
    "country": "Canada",
    "state": "QC",
    "city": "BAIE SAINT-PAUL",
    "postal": "G3Z 2W3",
    "priority": 1
  },
  {
    "lat": "46.4507991",
    "lng": "-71.0314105",
    "id": 3540749,
    "name": "Jean Coutu",
    "address": "1020 BOUL. VACHON NORD",
    "country": "Canada",
    "state": "QC",
    "city": "SAINTE-MARIE-DE-BEAUCE",
    "postal": "G6E 1M2",
    "priority": 1
  },
  {
    "lat": "45.5969533",
    "lng": "-73.3449118",
    "id": 3540750,
    "name": "Jean Coutu",
    "address": "800 MONTEE STE-JULIE",
    "country": "Canada",
    "state": "QC",
    "city": "SAINTE-JULIE",
    "postal": "J3E 2C4",
    "priority": 1
  },
  {
    "lat": "48.5563201",
    "lng": "-71.6383483",
    "id": 3540751,
    "name": "Jean Coutu",
    "address": "471 AVENUE DU PONT NORD",
    "country": "Canada",
    "state": "QC",
    "city": "ALMA ",
    "postal": "G8B 5E5",
    "priority": 1
  },
  {
    "lat": "45.5227579",
    "lng": "-73.7996633",
    "id": 3540752,
    "name": "Jean Coutu",
    "address": "245 BOUL. SAMSON",
    "country": "Canada",
    "state": "QC",
    "city": "LAVAL ",
    "postal": "H7X 3E4",
    "priority": 1
  },
  {
    "lat": "46.8417396",
    "lng": "-71.3254643",
    "id": 3540753,
    "name": "Jean Coutu",
    "address": "2283 AVE. CHAUVEAU",
    "country": "Canada",
    "state": "QC",
    "city": "QUEBEC",
    "postal": "G2C 0G7",
    "priority": 1
  },
  {
    "lat": "45.6665647",
    "lng": "-73.762327",
    "id": 3540754,
    "name": "Jean Coutu",
    "address": "83 MONTEE GAGNON",
    "country": "Canada",
    "state": "QC",
    "city": "BOIS-DES-FILION ",
    "postal": "J6Z 4C4",
    "priority": 1
  },
  {
    "lat": "46.7895666",
    "lng": "-71.1861032",
    "id": 3540755,
    "name": "Jean Coutu",
    "address": "4955 BOUL.GUILLAUME-COUTURE",
    "country": "Canada",
    "state": "QC",
    "city": "LEVIS ",
    "postal": "G6V 4Z5",
    "priority": 1
  },
  {
    "lat": "45.5907519",
    "lng": "-73.7850917",
    "id": 3540756,
    "name": "Jean Coutu",
    "address": "580-1 CURE LABELLE",
    "country": "Canada",
    "state": "QC",
    "city": "SAINTE-ROSE",
    "postal": "H7L 4V6",
    "priority": 1
  },
  {
    "lat": "46.84509",
    "lng": "-71.3681914",
    "id": 3540757,
    "name": "Jean Coutu",
    "address": "11000 BOUL. L'ORMIERE",
    "country": "Canada",
    "state": "QC",
    "city": "LORETTEVILLE",
    "postal": "G2B 5S1",
    "priority": 1
  },
  {
    "lat": "46.3738372",
    "lng": "-72.5591763",
    "id": 3540758,
    "name": "Jean Coutu",
    "address": "300 BARKOFF",
    "country": "Canada",
    "state": "QC",
    "city": "TROIS-RIVIERES ",
    "postal": "G8T 2A3",
    "priority": 1
  },
  {
    "lat": "45.4362917",
    "lng": "-75.6602523",
    "id": 3540759,
    "name": "Jean Coutu",
    "address": "262 MONTREAL ROAD",
    "country": "Canada",
    "state": "ON",
    "city": "VANIER",
    "postal": "K1L 6C3",
    "priority": 1
  },
  {
    "lat": "45.3966766",
    "lng": "-75.8374267",
    "id": 3540760,
    "name": "Jean Coutu",
    "address": "181 RUE PRINCIPALE",
    "country": "Canada",
    "state": "QC",
    "city": "GATINEAU",
    "postal": "J9H 6A6",
    "priority": 1
  },
  {
    "lat": "45.89728",
    "lng": "-64.368218",
    "id": 3540761,
    "name": "Jean Coutu",
    "address": "97 WEST MAIN STREET",
    "country": "Canada",
    "state": "NB",
    "city": "SACKVILLE",
    "postal": "E4L 4A9",
    "priority": 1
  },
  {
    "lat": "45.5153623",
    "lng": "-73.575102",
    "id": 3540762,
    "name": "Jean Coutu",
    "address": "3745 ST-LAURENT",
    "country": "Canada",
    "state": "QC",
    "city": "MONTREAL",
    "postal": "H2W 1X8",
    "priority": 1
  },
  {
    "lat": "46.0638595",
    "lng": "-64.8017827",
    "id": 3540763,
    "name": "Jean Coutu",
    "address": "438 COVERDALE ROAD",
    "country": "Canada",
    "state": "NB",
    "city": "RIVERVIEW",
    "postal": "E1B 4R9",
    "priority": 1
  },
  {
    "lat": "45.2834833",
    "lng": "-72.9793607",
    "id": 3540764,
    "name": "Jean Coutu",
    "address": "400, RUE MEIGS",
    "country": "Canada",
    "state": "QC",
    "city": "FARNHAM",
    "postal": "J2N 2C8",
    "priority": 1
  },
  {
    "lat": "45.7237202",
    "lng": "-73.6640188",
    "id": 3540765,
    "name": "Jean Coutu",
    "address": "2225 CHEMIN GASCON",
    "country": "Canada",
    "state": "QC",
    "city": "LACHENAIE",
    "postal": "J6X 4H3",
    "priority": 1
  },
  {
    "lat": "46.0891919",
    "lng": "-64.7902302",
    "id": 3540766,
    "name": "Jean Coutu",
    "address": "404 RUE ST-GEORGES",
    "country": "Canada",
    "state": "NB",
    "city": "MONCTON",
    "postal": "E1C 1X6",
    "priority": 1
  },
  {
    "lat": "46.6801247",
    "lng": "-72.0475841",
    "id": 3540767,
    "name": "Jean Coutu",
    "address": "900-1000 BOUL. BONA-DUSSEAULT",
    "country": "Canada",
    "state": "QC",
    "city": "SAINT-MARC-DES-CARRIERES",
    "postal": "G0A 4B0",
    "priority": 1
  },
  {
    "lat": "48.3981587",
    "lng": "-64.4867532",
    "id": 3540768,
    "name": "Jean Coutu",
    "address": "200 GRANDE-ALLEE EST",
    "country": "Canada",
    "state": "QC",
    "city": "GRANDE-RIVIERE ",
    "postal": "G0C 1V0",
    "priority": 1
  },
  {
    "lat": "46.7802982",
    "lng": "-71.3018479",
    "id": 3540769,
    "name": "Jean Coutu",
    "address": "2766 CHEMIN STE-FOY",
    "country": "Canada",
    "state": "QC",
    "city": "SAINTE-FOY",
    "postal": "G1V 1V5",
    "priority": 1
  },
  {
    "lat": "45.530385",
    "lng": "-73.57673360000001",
    "id": 3450913,
    "name": "Jean Coutu",
    "phone": "(514) 527-8827",
    "fax": "(514) 527-2233",
    "address": "1370 Avenue Mont-Royal Est",
    "country": "Canada",
    "state": "QC",
    "city": "Montréal",
    "postal": "H2J 1Y7",
    "priority": 1
  },